{
  "banheiros": [
    {
      "name": "Praça Amambaí 13 Engenho de Dentro",
      "description": {
        "text": "<div><span class=\"l\">Endereço descritivo:</span>&nbsp;Praça Amambaí 13 Engenho de Dentro</div><div><span class=\"l\">AP:</span>&nbsp;4</div><div><span class=\"l\">Status:</span>&nbsp;Instalados e em funcionamento</div>"
      },
      "ilustration": {},
      "geoResult": {
        "address": "Praça Amambaí - Engenho de Dentro, Rio de Janeiro - RJ, Brasil",
        "point": {
          "lng": -43.294641,
          "lat": -22.903152
        }
      }
    },
    {
      "name": "Praça Ipupiara - Vicente de Carvalho",
      "description": {
        "text": "<div><span class=\"l\">Endereço descritivo:</span>&nbsp;Praça Ipupiara - Vicente de Carvalho</div><div><span class=\"l\">AP:</span>&nbsp;3</div><div><span class=\"l\">Status:</span>&nbsp;Instalados e em funcionamento</div>"
      },
      "ilustration": {},
      "geoResult": {
        "address": "Praça Ipupiara - Irajá, Rio de Janeiro - RJ, 21361-270, Brasil",
        "point": {
          "lng": -43.324794,
          "lat": -22.852716
        }
      }
    },
    {
      "name": "Praça Catende 13 Rocha Miranda",
      "description": {
        "text": "<div><span class=\"l\">Endereço descritivo:</span>&nbsp;Praça Catende (Sta. Eugenia) 13 Rocha Miranda</div><div><span class=\"l\">AP:</span>&nbsp;3</div><div><span class=\"l\">Status:</span>&nbsp;Instalados e em funcionamento</div>"
      },
      "ilustration": {},
      "geoResult": {
        "address": "Praça Catende - Rocha Miranda, Rio de Janeiro - RJ, Brasil",
        "point": {
          "lng": -43.346698,
          "lat": -22.85148
        }
      }
    },
    {
      "name": "Praça Oito de Maio - Rocha Miranda",
      "description": {
        "text": "<div><span class=\"l\">Endereço descritivo:</span>&nbsp;Praça Oito de Maio - Rocha Miranda</div><div><span class=\"l\">AP:</span>&nbsp;3</div><div><span class=\"l\">Status:</span>&nbsp;Instalados e em funcionamento</div>"
      },
      "ilustration": {},
      "geoResult": {
        "address": "Praça Oito de Maio - Rocha Miranda, Rio de Janeiro - RJ, Brasil",
        "point": {
          "lng": -43.351483,
          "lat": -22.853939
        }
      }
    },
    {
      "name": "Rua Carvalho de Souza 247 - Madureira",
      "description": {
        "text": "<div><span class=\"l\">Endereço descritivo:</span>&nbsp;Rua Carvalho de Souza, junto ao nº 247 - Madureira</div><div><span class=\"l\">AP:</span>&nbsp;3</div><div><span class=\"l\">Status:</span>&nbsp;Instalados e em funcionamento</div>"
      },
      "ilustration": {},
      "geoResult": {
        "address": "R. Carvalho de Sousa, 247 - Madureira, Rio de Janeiro - RJ, 21350-180, Brasil",
        "point": {
          "lng": -43.335469,
          "lat": -22.875767
        }
      }
    },
    {
      "name": "Praça Paulo Setúbal - Vila da Penha",
      "description": {
        "text": "<div><span class=\"l\">Endereço descritivo:</span>&nbsp;Praça Paulo Setúbal - Vila da Penha</div><div><span class=\"l\">AP:</span>&nbsp;3</div><div><span class=\"l\">Status:</span>&nbsp;Instalados e em funcionamento</div>"
      },
      "ilustration": {},
      "geoResult": {
        "address": "Praça Paulo Setúbal - Vila da Penha, Rio de Janeiro - RJ, Brasil",
        "point": {
          "lng": -43.311427,
          "lat": -22.841639
        }
      }
    },
    {
      "name": "Praça N. S. de Nazaré - Anchieta",
      "description": {
        "text": "<div><span class=\"l\">Endereço descritivo:</span>&nbsp;Rua Mario Verse junto a Praça N. S. de Nazaré - Anchieta</div><div><span class=\"l\">AP:</span>&nbsp;3</div><div><span class=\"l\">Status:</span>&nbsp;Instalados e em funcionamento</div>"
      },
      "ilustration": {},
      "geoResult": {
        "address": "Praça Ns. de Nazaré - Anchieta, Rio de Janeiro - RJ, Brasil",
        "point": {
          "lng": -43.398689,
          "lat": -22.821524
        }
      }
    },
    {
      "name": "Rua Santa Fé, Méier",
      "description": {
        "text": "<div><span class=\"l\">Endereço descritivo:</span>&nbsp;Rua Santa Fé, Jardim do Méier - Méier</div><div><span class=\"l\">AP:</span>&nbsp;3</div><div><span class=\"l\">Status:</span>&nbsp;Instalados e em funcionamento</div>"
      },
      "ilustration": {},
      "geoResult": {
        "address": "R. Santa Fé - Méier, Rio de Janeiro - RJ, 20775-065, Brasil",
        "point": {
          "lng": -43.278304,
          "lat": -22.899383
        }
      }
    },
    {
      "name": "Praça José de Souza Marques - Cascadura",
      "description": {
        "text": "<div><span class=\"l\">Endereço descritivo:</span>&nbsp;Praça José de Souza Marques - Cascadura</div><div><span class=\"l\">AP:</span>&nbsp;3</div><div><span class=\"l\">Status:</span>&nbsp;Sanitários - Instalados e dependendo de ligações CEDAE</div><div><span class=\"l\">Esgoto:</span>&nbsp;Fossa e filtro ligado</div><div><span class=\"l\">Água:</span>&nbsp;Falta Ligar</div>"
      },
      "ilustration": {},
      "geoResult": {
        "address": "Praça José de Sousa Marques - Cascadura, Rio de Janeiro - RJ, Brasil",
        "point": {
          "lng": -43.329823,
          "lat": -22.881854
        }
      }
    },
    {
      "name": "Praça Saiqui - Vila Valqueire",
      "description": {
        "text": "<div><span class=\"l\">Endereço descritivo:</span>&nbsp;Praça Saiqui - Vila Valqueire</div><div><span class=\"l\">AP:</span>&nbsp;4</div><div><span class=\"l\">Status:</span>&nbsp;Sanitários - Instalados e dependendo de ligações CEDAE</div><div><span class=\"l\">Esgoto:</span>&nbsp;Fossa e filtro ligado</div><div><span class=\"l\">Observações:</span>&nbsp;Extensão de 18 metros</div><div><span class=\"l\">Água:</span>&nbsp;Falta Ligar</div>"
      },
      "ilustration": {},
      "geoResult": {
        "address": "Praça Saiqui - Vila Valqueire, Rio de Janeiro - RJ, 21330-320, Brasil",
        "point": {
          "lng": -43.367356,
          "lat": -22.882943
        }
      }
    },
    {
      "name": "Praça Valqueire - Vila Valqueire",
      "description": {
        "text": "<div><span class=\"l\">Endereço descritivo:</span>&nbsp;Praça Valqueire - Vila Valqueire</div><div><span class=\"l\">AP:</span>&nbsp;4</div><div><span class=\"l\">Status:</span>&nbsp;Sanitários - Instalados e dependendo de ligações CEDAE</div><div><span class=\"l\">Esgoto:</span>&nbsp;Fossa e filtro ligado</div><div><span class=\"l\">Observações:</span>&nbsp;Extensão de 20 metros</div><div><span class=\"l\">Água:</span>&nbsp;Falta Ligar</div>"
      },
      "ilustration": {},
      "geoResult": {
        "address": "Praça Valqueire - Rio de Janeiro - RJ, Brasil",
        "point": {
          "lng": -43.363326,
          "lat": -22.877866
        }
      }
    },
    {
      "name": "Rua Francisco Real esquina Av. Cônego de Vasconcellos - Bangu",
      "description": {
        "text": "<div><span class=\"l\">Endereço descritivo:</span>&nbsp;Av. Cônego de Vasconcellos - Bangu</div><div><span class=\"l\">AP:</span>&nbsp;5</div><div><span class=\"l\">Status:</span>&nbsp;Sanitários - Instalados e dependendo de ligações CEDAE</div><div><span class=\"l\">Esgoto:</span>&nbsp;Instalar Fossa e filtro</div><div><span class=\"l\">Água:</span>&nbsp;Falta Ligar</div>"
      },
      "ilustration": {},
      "geoResult": {
        "address": "Bangu, Rio de Janeiro - RJ, Brasil",
        "point": {
          "lng": -43.46663,
          "lat": -22.88327
        }
      }
    },
    {
      "name": "Rua Senador Camará entre o Bar 24 horas e a Fármacia Rei do Cosmético de Santa Cruz 13 Santa Cruz",
      "description": {
        "text": "<div><span class=\"l\">Endereço descritivo:</span>&nbsp;Rua Senador Camará, Santa Cruz</div><div><span class=\"l\">AP:</span>&nbsp;5</div><div><span class=\"l\">Status:</span>&nbsp;Sanitários - Instalados e dependendo de ligações CEDAE</div><div><span class=\"l\">Esgoto:</span>&nbsp;Instalar Fossa e filtro</div><div><span class=\"l\">Água:</span>&nbsp;Falta ligar</div>"
      },
      "ilustration": {},
      "geoResult": {
        "address": "Santa Cruz, Califórnia, USA",
        "point": {
          "lng": -122.03072,
          "lat": 36.974164
        }
      }
    },
    {
      "name": "Av do Magistério 368, Ilha do Governador",
      "description": {
        "text": "<div><span class=\"l\">Endereço descritivo:</span>&nbsp;Av do Magistério, 368 13 Ilha do Governador</div><div><span class=\"l\">AP:</span>&nbsp;3</div><div><span class=\"l\">Status:</span>&nbsp;Instalados e em funcionamento</div>"
      },
      "ilustration": {},
      "geoResult": {
        "address": "Av. do Magistério, 368 - Moneró, Rio de Janeiro - RJ, 21920-455, Brasil",
        "point": {
          "lng": -43.197719,
          "lat": -22.793975
        }
      }
    },
    {
      "name": "Av. Brás de Pina, Penha",
      "description": {
        "text": "<div><span class=\"l\">Endereço descritivo:</span>&nbsp;Av. Brás de Pina, junto ao calçadão Plínio de Oliveira - Penha</div><div><span class=\"l\">AP:</span>&nbsp;3</div><div><span class=\"l\">Status:</span>&nbsp;Instalados e em funcionamento</div>"
      },
      "ilustration": {},
      "geoResult": {
        "address": "Av. Brás de Pina - Penha, Rio de Janeiro - RJ, Brasil",
        "point": {
          "lng": -43.281416,
          "lat": -22.84028
        }
      }
    },
    {
      "name": "Av. Nelson Cardoso 2139, Jacarepaguá",
      "description": {
        "text": "<div><span class=\"l\">Endereço descritivo:</span>&nbsp;Av. Nelson Cardoso 13 Largo Taquara frente 2139 13 Jacarepaguá</div><div><span class=\"l\">AP:</span>&nbsp;4</div><div><span class=\"l\">Status:</span>&nbsp;Instalados e em funcionamento</div>"
      },
      "ilustration": {},
      "geoResult": {
        "address": "Av. Nélson Cardoso, 2139 - Taquara, Rio de Janeiro - RJ, 22730-001, Brasil",
        "point": {
          "lng": -43.372958,
          "lat": -22.922771
        }
      }
    },
    {
      "name": "Praça Manoel Comendador Gomes, Vicente de Carvalho",
      "description": {
        "text": "<div><span class=\"l\">Endereço descritivo:</span>&nbsp;Av. Vicente de Carvalho (Praça Manoel Comendador Gomes em frente a Casa de Viseu) 13 Vicente de Carvalho</div><div><span class=\"l\">AP:</span>&nbsp;3</div><div><span class=\"l\">Status:</span>&nbsp;Instalados e em funcionamento</div>"
      },
      "ilustration": {},
      "geoResult": {
        "address": "Vicente de Carvalho, Rio de Janeiro - RJ, Brasil",
        "point": {
          "lng": -43.317324,
          "lat": -22.856852
        }
      }
    },
    {
      "name": "Estrada Do Galeão 2733, Ilha do Governador",
      "description": {
        "text": "<div><span class=\"l\">Endereço descritivo:</span>&nbsp;Est. Do Galeão em frente ao nº 2733 - Ilha do Governador</div><div><span class=\"l\">AP:</span>&nbsp;3</div><div><span class=\"l\">Status:</span>&nbsp;Instalados e em funcionamento</div>"
      },
      "ilustration": {},
      "geoResult": {
        "address": "Estr. do Galeão, 2733 - Portuguesa, Rio de Janeiro - RJ, 21931-387, Brasil",
        "point": {
          "lng": -43.211207,
          "lat": -22.805617
        }
      }
    },
    {
      "name": "Praça Anhangá, Brás de Pina",
      "description": {
        "text": "<div><span class=\"l\">Endereço descritivo:</span>&nbsp;Praça Anhangá - Brás de Pina</div><div><span class=\"l\">AP:</span>&nbsp;3</div><div><span class=\"l\">Status:</span>&nbsp;Instalados e em funcionamento</div>"
      },
      "ilustration": {},
      "geoResult": {
        "address": "Praça Anhangá - Brás de Pina, Rio de Janeiro - RJ, Brasil",
        "point": {
          "lng": -43.286089,
          "lat": -22.82635
        }
      }
    },
    {
      "name": "Praça Nossa Senhora da Apresentação, Irajá",
      "description": {
        "text": "<div><span class=\"l\">Endereço descritivo:</span>&nbsp;Praça Nossa Senhora da Apresentação - Irajá</div><div><span class=\"l\">AP:</span>&nbsp;3</div><div><span class=\"l\">Status:</span>&nbsp;Instalados e em funcionamento</div>"
      },
      "ilustration": {},
      "geoResult": {
        "address": "Praça Ns. da Apresentação - Irajá, Rio de Janeiro - RJ, Brasil",
        "point": {
          "lng": -43.327463,
          "lat": -22.831209
        }
      }
    },
    {
      "name": "Praça Patriarca, Madureira",
      "description": {
        "text": "<div><span class=\"l\">Endereço descritivo:</span>&nbsp;Praça Patriarca 13 Madureira</div><div><span class=\"l\">AP:</span>&nbsp;3</div><div><span class=\"l\">Status:</span>&nbsp;Instalados e em funcionamento</div>"
      },
      "ilustration": {},
      "geoResult": {
        "address": "Praça do Patriarca - Madureira, Rio de Janeiro - RJ, Brasil",
        "point": {
          "lng": -43.341909,
          "lat": -22.878079
        }
      }
    },
    {
      "name": "Praça Professor Mourão Filho, Bonsucesso",
      "description": {
        "text": "<div><span class=\"l\">Endereço descritivo:</span>&nbsp;Praça Professor Mourão Filho - Bonsucesso</div><div><span class=\"l\">AP:</span>&nbsp;3</div><div><span class=\"l\">Status:</span>&nbsp;Instalados e em funcionamento</div>"
      },
      "ilustration": {},
      "geoResult": {
        "address": "Praça Prof. Mourão Filho - Ramos, Rio de Janeiro - RJ, Brasil",
        "point": {
          "lng": -43.252575,
          "lat": -22.854959
        }
      }
    },
    {
      "name": "Rua Dias da Cruz, Méier",
      "description": {
        "text": "<div><span class=\"l\">Endereço descritivo:</span>&nbsp;Rua Dias da Cruz em frente ao Banco do Brasil - Méier</div><div><span class=\"l\">AP:</span>&nbsp;3</div><div><span class=\"l\">Status:</span>&nbsp;Instalados e em funcionamento</div>"
      },
      "ilustration": {},
      "geoResult": {
        "address": "R. Dias da Cruz - Méier, Rio de Janeiro - RJ, Brasil",
        "point": {
          "lng": -43.285136,
          "lat": -22.903978
        }
      }
    },
    {
      "name": "Rua Felipe Cardoso, Santa Cruz, rio de janeiro",
      "description": {
        "text": "<div><span class=\"l\">Endereço descritivo:</span>&nbsp;Rua Felipe Cardoso esquina com Rua Dom Pedro Primeiro - Praça Ringue 13 Santa Cruz</div><div><span class=\"l\">AP:</span>&nbsp;5</div><div><span class=\"l\">Status:</span>&nbsp;Instalados e em funcionamento</div>"
      },
      "ilustration": {},
      "geoResult": {
        "address": "R. Felipe Cardoso - Santa Cruz, Rio de Janeiro - RJ, Brasil",
        "point": {
          "lng": -43.677186,
          "lat": -22.927694
        }
      }
    },
    {
      "name": "Rua José Maurício 271 - Penha",
      "description": {
        "text": "<div><span class=\"l\">Endereço descritivo:</span>&nbsp;Rua José Maurício, nº 271 - Penha</div><div><span class=\"l\">AP:</span>&nbsp;3</div><div><span class=\"l\">Status:</span>&nbsp;Instalados e em funcionamento</div>"
      },
      "ilustration": {},
      "geoResult": {
        "address": "R. José Maurício, 271 - Penha, Rio de Janeiro - RJ, 21070-150, Brasil",
        "point": {
          "lng": -43.279184,
          "lat": -22.840216
        }
      }
    },
    {
      "name": "Praça dos Cadetes 13 Realengo",
      "description": {
        "text": "<div><span class=\"l\">Endereço descritivo:</span>&nbsp;Rua Marechal Modestino junto a Praça dos Cadetes 13 Realengo</div><div><span class=\"l\">AP:</span>&nbsp;5</div><div><span class=\"l\">Status:</span>&nbsp;Instalados e em funcionamento</div>"
      },
      "ilustration": {},
      "geoResult": {
        "address": "Praça dos Cadetes - Realengo, Rio de Janeiro - RJ, Brasil",
        "point": {
          "lng": -43.432832,
          "lat": -22.872225
        }
      }
    },
    {
      "name": "Praça dos Cadetes 13 Realengo",
      "description": {
        "text": "<div><span class=\"l\">Endereço descritivo:</span>&nbsp;Rua Marechal Modestino junto a Praça dos Cadetes 13 Realengo</div><div><span class=\"l\">AP:</span>&nbsp;5</div><div><span class=\"l\">Status:</span>&nbsp;Instalados e em funcionamento</div>"
      },
      "ilustration": {},
      "geoResult": {
        "address": "Praça dos Cadetes - Realengo, Rio de Janeiro - RJ, Brasil",
        "point": {
          "lng": -43.432843,
          "lat": -22.872222
        }
      }
    },
    {
      "name": "Rua Leopoldina Rego - Penha",
      "description": {
        "text": "<div><span class=\"l\">Endereço descritivo:</span>&nbsp;Rua Leopoldina Rego junto a Praça do IAPI - Penha</div><div><span class=\"l\">AP:</span>&nbsp;3</div><div><span class=\"l\">Status:</span>&nbsp;Instalados e em funcionamento</div>"
      },
      "ilustration": {},
      "geoResult": {
        "address": "R. Leopoldina Rêgo - Penha, Rio de Janeiro - RJ, Brasil",
        "point": {
          "lng": -43.272077,
          "lat": -22.841917
        }
      }
    },
    {
      "name": "Praça Marechal Maurício Cardoso, Ramos",
      "description": {
        "text": "<div><span class=\"l\">Endereço descritivo:</span>&nbsp;Praça Marechal Maurício Cardoso, esquina com Rua Leopoldina Rego - Ramos</div><div><span class=\"l\">AP:</span>&nbsp;3</div><div><span class=\"l\">Status:</span>&nbsp;Instalados e em funcionamento</div>"
      },
      "ilustration": {},
      "geoResult": {
        "address": "Praça Mal. Maurício Cardoso - Penha, Rio de Janeiro - RJ, 21021-340, Brasil",
        "point": {
          "lng": -43.269242,
          "lat": -22.842247
        }
      }
    },
    {
      "name": "Av. Geremário Dantas, Jacarepaguá",
      "description": {
        "text": "<div><span class=\"l\">Endereço descritivo:</span>&nbsp;Av. Geremário Dantas, Jacarepaguá</div><div><span class=\"l\">AP:</span>&nbsp;4</div><div><span class=\"l\">Status:</span>&nbsp;Sanitários - Instalados e dependendo de ligações CEDAE</div><div><span class=\"l\">Esgoto:</span>&nbsp;Possui rede de esgoto</div><div><span class=\"l\">Observações:</span>&nbsp;21 metros de rede de esgoto DN 150 mm</div><div><span class=\"l\">Água:</span>&nbsp;Falta Ligar</div>"
      },
      "ilustration": {},
      "geoResult": {
        "address": "Av. Geremário Dantas - Jacarepaguá, Rio de Janeiro - RJ, Brasil",
        "point": {
          "lng": -43.347329,
          "lat": -22.938442
        }
      }
    },
    {
      "name": "Praça Barão de Taquara 13 Praça Seca - Jacarepaguá",
      "description": {
        "text": "<div><span class=\"l\">Endereço descritivo:</span>&nbsp;Praça Barão de Taquara 13 Praça Seca - Jacarepaguá</div><div><span class=\"l\">AP:</span>&nbsp;4</div><div><span class=\"l\">Status:</span>&nbsp;Sanitários - Instalados e dependendo de ligações CEDAE</div><div><span class=\"l\">Esgoto:</span>&nbsp;Possui Rede de esgoto</div><div><span class=\"l\">Observações:</span>&nbsp;25 metros de rede de esgoto DN 150 mm</div><div><span class=\"l\">Água:</span>&nbsp;Ligada</div>"
      },
      "ilustration": {},
      "geoResult": {
        "address": "Praça Barão Taquara - Praça Seca, Rio de Janeiro - RJ, Brasil",
        "point": {
          "lng": -43.352573,
          "lat": -22.897154
        }
      }
    },
    {
      "name": "Praça Geisa Bôscoli 13 Anil - Jacarepaguá",
      "description": {
        "text": "<div><span class=\"l\">Endereço descritivo:</span>&nbsp;Praça Geisa Bôscoli - Anil - Jacarepaguá</div><div><span class=\"l\">AP:</span>&nbsp;4</div><div><span class=\"l\">Status:</span>&nbsp;Sanitários - Instalados e dependendo de ligações CEDAE</div><div><span class=\"l\">Esgoto:</span>&nbsp;Possui rede de esgoto</div><div><span class=\"l\">Observações:</span>&nbsp;Aguardando ligação simples Cedae</div><div><span class=\"l\">Água:</span>&nbsp;Falta Ligar</div>"
      },
      "ilustration": {},
      "geoResult": {
        "address": "Praça Geysa Bôscoli - Anil, Rio de Janeiro - RJ, Brasil",
        "point": {
          "lng": -43.337102,
          "lat": -22.952496
        }
      }
    },
    {
      "name": "Av. Cônego de Vasconcelos esq. Rua Prof. Clemente Ferreira - Bangu",
      "description": {
        "text": "<div><span class=\"l\">Endereço descritivo:</span>&nbsp;Rua Prof. Clemente Ferreira - Bangu</div><div><span class=\"l\">AP:</span>&nbsp;5</div><div><span class=\"l\">Status:</span>&nbsp;Sanitários - Instalados e dependendo de ligações CEDAE</div><div><span class=\"l\">Esgoto:</span>&nbsp;Instalar Fossa e filtro</div><div><span class=\"l\">Água:</span>&nbsp;Falta Ligar</div>"
      },
      "ilustration": {},
      "geoResult": {
        "address": "Bangu, Rio de Janeiro - RJ, Brasil",
        "point": {
          "lng": -43.466611,
          "lat": -22.883319
        }
      }
    },
    {
      "name": "Calçadão de Campo Grande - Rua Coronel Agostinho - em frente a divisa entre o Banco Bradesco nº 124 e Lojas Americanas nº 106 13 Campo Grande",
      "description": {
        "text": "<div><span class=\"l\">Endereço descritivo:</span>&nbsp;Rua Coronel Agostinho 124</div><div><span class=\"l\">AP:</span>&nbsp;5</div><div><span class=\"l\">Status:</span>&nbsp;Sanitários - Instalados e dependendo de ligações CEDAE</div><div><span class=\"l\">Esgoto:</span>&nbsp;Instalar Fossa e filtro</div><div><span class=\"l\">Água:</span>&nbsp;Falta Ligar</div>"
      },
      "ilustration": {},
      "geoResult": {
        "address": "Campo Grande - MS, Brasil",
        "point": {
          "lng": -54.647713,
          "lat": -20.443443
        }
      }
    },
    {
      "name": "Calçadão de Campo Grande - Rua Coronel Agostinho próximo a esquina com Viúva Dantas - em frente a Maria Tocaia e Drogaria do Povo 13 Campo Grande",
      "description": {
        "text": "<div><span class=\"l\">Endereço descritivo:</span>&nbsp;Rua Vva Dantas, Campo Grande</div><div><span class=\"l\">AP:</span>&nbsp;5</div><div><span class=\"l\">Status:</span>&nbsp;Sanitários - Instalados e dependendo de ligações CEDAE</div><div><span class=\"l\">Esgoto:</span>&nbsp;Instalar Fossa e filtro</div><div><span class=\"l\">Água:</span>&nbsp;Falta Ligar</div>"
      },
      "ilustration": {},
      "geoResult": {
        "address": "Campo Grande - MS, Brasil",
        "point": {
          "lng": -54.647758,
          "lat": -20.44343
        }
      }
    },
    {
      "name": "Praça Orleans 13 Taquara - Jacarepaguá",
      "description": {
        "text": "<div><span class=\"l\">Endereço descritivo:</span>&nbsp;Praça Orleans 13 Taquara - Jacarepaguá</div><div><span class=\"l\">AP:</span>&nbsp;4</div><div><span class=\"l\">Status:</span>&nbsp;Sanitários - Instalados e dependendo de ligações CEDAE</div><div><span class=\"l\">Esgoto:</span>&nbsp;Fossa e filtro ligado</div><div><span class=\"l\">Observações:</span>&nbsp;Aguardar obra Cedae e extensão de 18 metros</div><div><span class=\"l\">Água:</span>&nbsp;Falta Ligar</div>"
      },
      "ilustration": {},
      "geoResult": {
        "address": "Jacarepaguá, Rio de Janeiro - RJ, Brasil",
        "point": {
          "lng": -43.349982,
          "lat": -22.949989
        }
      }
    },
    {
      "name": "Rua Barcellos Domingos em frente ao nº 32 na calçada junto a divisa da entrada do estacionamento e a Loja R. Peixoto Móveis 13 Campo Grande",
      "description": {
        "text": "<div><span class=\"l\">Endereço descritivo:</span>&nbsp;Rua Barcellos Domingos 32, Campo Grande</div><div><span class=\"l\">AP:</span>&nbsp;5</div><div><span class=\"l\">Status:</span>&nbsp;Sanitários - Instalados e dependendo de ligações CEDAE</div><div><span class=\"l\">Esgoto:</span>&nbsp;Instalar Fossa e filtro</div><div><span class=\"l\">Água:</span>&nbsp;Falta Ligar</div>"
      },
      "ilustration": {},
      "geoResult": {
        "address": "Campo Grande - MS, Brasil",
        "point": {
          "lng": -54.6477,
          "lat": -20.443494
        }
      }
    },
    {
      "name": "Rua Viúva Dantas esquina com rua José Ferreira, lado oposto ao Passeio Shopping e ao nº 55 da Rua Viúva Dantas 13 Campo Grande",
      "description": {
        "text": "<div><span class=\"l\">Endereço descritivo:</span>&nbsp;Rua Vva Dantas 55, Campo Grande</div><div><span class=\"l\">AP:</span>&nbsp;5</div><div><span class=\"l\">Status:</span>&nbsp;Sanitários - Instalados e dependendo de ligações CEDAE</div><div><span class=\"l\">Esgoto:</span>&nbsp;Instalar Fossa e filtro</div><div><span class=\"l\">Água:</span>&nbsp;Falta Ligar</div>"
      },
      "ilustration": {},
      "geoResult": {
        "address": "Campo Grande - MS, Brasil",
        "point": {
          "lng": -54.64773,
          "lat": -20.443428
        }
      }
    }
  ],
  "bombeiros": [
    {
      "name": "Grupamento de Operacoes Aereas Barra da Tijuca",
      "description": {
        "text": "Telefone:3399-7886"
      },
      "geoResult": {
        "address": "Avenida Ayrton Senna, 2.541 - Rua B - Hangar 42 - Aeroporto de Jacarepaguá",
        "point": {
          "lng": -43.370468,
          "lat": -22.987665
        }
      }
    },
    {
      "name": "2º Grupamento Maritimo Barra da Tijuca",
      "description": {
        "text": "Telefone:2493-1454 / 2493-03"
      },
      "geoResult": {
        "address": "Avenida Lúcio Costa, s/n",
        "point": {
          "lng": -43.304287,
          "lat": -23.015064
        }
      }
    },
    {
      "name": "Corpo de Bombeiros Barra de Guaratiba",
      "description": {
        "text": "Telefone:2410-8044"
      },
      "geoResult": {
        "address": "Estrada Barra de Guaratiba, 9.748",
        "point": {
          "lng": -43.540886,
          "lat": -23.005737
        }
      }
    },
    {
      "name": "Corpo de Bombeiros Distrito Industrial de Santa Cruz",
      "description": {
        "text": "Telefone:3399-5970"
      },
      "geoResult": {
        "address": "Rua Átila Temporal, s/n - Quadra 16",
        "point": {
          "lng": -43.756874,
          "lat": -22.891733
        }
      }
    },
    {
      "name": "Corpo de Bombeiros Recreio dos Bandeirantes",
      "description": {
        "text": "Telefone:3399-7898"
      },
      "geoResult": {
        "address": "Avenida das Américas, s/n",
        "point": {
          "lng": -43.436768,
          "lat": -23.006405
        }
      }
    },
    {
      "name": "13º Grupamento de Bombeiro Militar Campo Grande",
      "description": {
        "text": "Telefone:3394-1234"
      },
      "geoResult": {
        "address": "Avenida Cesário de Melo, 3.226",
        "point": {
          "lng": -43.562778,
          "lat": -22.907396
        }
      }
    },
    {
      "name": "Corpo de Bombeiros Ramos",
      "description": {
        "text": "Telefone:2260-1234"
      },
      "geoResult": {
        "address": "Rua Euclides Farias, 139",
        "point": {
          "lng": -43.264362,
          "lat": -22.855652
        }
      }
    },
    {
      "name": "Corpo de Bombeiros Paqueta",
      "description": {
        "text": "Telefone:3397-0300"
      },
      "geoResult": {
        "address": "Praia das Moreninhas, s/n",
        "point": {
          "lng": -43.111183,
          "lat": -22.754944
        }
      }
    },
    {
      "name": "1º Grupamento de Busca e Salvamento",
      "description": {
        "text": "Telefone:3325-1234"
      },
      "geoResult": {
        "address": "Avenida Ayrton Senna, 2.001",
        "point": {
          "lng": -43.366333,
          "lat": -22.992855
        }
      }
    },
    {
      "name": "Corpo de Bombeiros Benfica",
      "description": {
        "text": "Telefone:3890-1234"
      },
      "geoResult": {
        "address": "Avenida Dom Helder Câmara, 9",
        "point": {
          "lng": -43.240108,
          "lat": -22.892284
        }
      }
    },
    {
      "name": "Grupamento Tecnico de Suprimento de Agua em Incendios - Caju",
      "description": {
        "text": "Telefone:2580-1234"
      },
      "geoResult": {
        "address": "Rua Monsenhor Manoel Gomes, s/n",
        "point": {
          "lng": -43.219421,
          "lat": -22.888163
        }
      }
    },
    {
      "name": "8º Grupamento de Bombeiro Militar - Campinho",
      "description": {
        "text": "Telefone:3390-1234"
      },
      "geoResult": {
        "address": "Rua Domingos Lopes, 336",
        "point": {
          "lng": -43.341396,
          "lat": -22.880043
        }
      }
    },
    {
      "name": "17º Grupamento de Bombeiro Militar Copacabana",
      "description": {
        "text": "Telefone:2547-1234"
      },
      "geoResult": {
        "address": "Rua Xavier da Silveira, 120",
        "point": {
          "lng": -43.193562,
          "lat": -22.976057
        }
      }
    },
    {
      "name": "Corpo de Bombeiros Ilha do Governador",
      "description": {
        "text": "Telefone:3393-1234"
      },
      "geoResult": {
        "address": "Estrada do Galeão, s/n",
        "point": {
          "lng": -43.197552,
          "lat": -22.807545
        }
      }
    },
    {
      "name": "Corpo de Bombeiros Iraja",
      "description": {
        "text": "Telefone:3399-6957"
      },
      "geoResult": {
        "address": "Avenida Brasil, 19.001",
        "point": {
          "lng": -43.336555,
          "lat": -22.826092
        }
      }
    },
    {
      "name": "12º Grupamento de Bombeiro Militar Jacarepagua",
      "description": {
        "text": "Telefone:3392-1234"
      },
      "geoResult": {
        "address": "Rua Henriqueta, 99",
        "point": {
          "lng": -43.357986,
          "lat": -22.919605
        }
      }
    },
    {
      "name": "2º Grupamento de Bombeiro Militar - Meier",
      "description": {
        "text": "Telefone:2501-1234"
      },
      "geoResult": {
        "address": "Rua Aristides Caire, 56",
        "point": {
          "lng": -43.278027,
          "lat": -22.899624
        }
      }
    },
    {
      "name": "Corpo de Bombeiros Penha",
      "description": {
        "text": "Telefone:2290-1234"
      },
      "geoResult": {
        "address": "Avenida Nossa Senhora da Penha, 25",
        "point": {
          "lng": -43.279179,
          "lat": -22.843472
        }
      }
    },
    {
      "name": "Corpo de Bombeiros Praca da Bandeira",
      "description": {
        "text": "Telefone:2273-1234"
      },
      "geoResult": {
        "address": "Praca da Bandeira, 156",
        "point": {
          "lng": -43.214252,
          "lat": -22.910482
        }
      }
    },
    {
      "name": "Corpo de Bombeiros Realengo",
      "description": {
        "text": "Telefone:3331-1234"
      },
      "geoResult": {
        "address": "Rua General Sezefredo, 449",
        "point": {
          "lng": -43.434925,
          "lat": -22.880013
        }
      }
    },
    {
      "name": "Corpo de Bombeiros Santa Teresa",
      "description": {
        "text": "Telefone:3399-7956"
      },
      "geoResult": {
        "address": "Rua Almirante Alexandrino, 3.596",
        "point": {
          "lng": -43.204159,
          "lat": -22.936552
        }
      }
    },
    {
      "name": "1º Grupamento de Bombeiro Militar - Humaita",
      "description": {
        "text": "Telefone:2538--1234"
      },
      "geoResult": {
        "address": "Rua Humaitá, 126",
        "point": {
          "lng": -43.199291,
          "lat": -22.957476
        }
      }
    },
    {
      "name": "Quartel do Comando Geral do CBMERJ",
      "description": {
        "text": "Telefone:3399-4069"
      },
      "geoResult": {
        "address": "Praça da República, 45",
        "point": {
          "lng": -43.187283,
          "lat": -22.908846
        }
      }
    },
    {
      "name": "11º Grupamento de Bombeiro Militar - Vila Isabel",
      "description": {
        "text": "Telefone:2569-4326"
      },
      "geoResult": {
        "address": "Rua Oito de Dezembro, 456",
        "point": {
          "lng": -43.241421,
          "lat": -22.910351
        }
      }
    },
    {
      "name": "Corpo de Bombeiros Tijuca",
      "description": {
        "text": "Telefone:2570-8234"
      },
      "geoResult": {
        "address": "Rua Antonio Basílio, 610",
        "point": {
          "lng": -43.239574,
          "lat": -22.928389
        }
      }
    },
    {
      "name": "Corpo de Bombeiros Gavea",
      "description": {
        "text": "Telefone:2274-1234"
      },
      "geoResult": {
        "address": "Rua Major Rubens Vaz, 194",
        "point": {
          "lng": -43.226048,
          "lat": -22.972414
        }
      }
    },
    {
      "name": "Grupamento de Socorro de Emergencia",
      "description": {
        "text": "Telefone:2285-6386"
      },
      "geoResult": {
        "address": "Praca São Salvador, 4",
        "point": {
          "lng": -43.179813,
          "lat": -22.933733
        }
      }
    },
    {
      "name": "Corpo de Bombeiros Grajau",
      "description": {
        "text": "Telefone:2576-6234"
      },
      "geoResult": {
        "address": "Rua Marechal Jofre, 80",
        "point": {
          "lng": -43.265362,
          "lat": -22.918692
        }
      }
    },
    {
      "name": "Corpo de Bombeiros Parada de Lucas",
      "description": {
        "text": "Telefone:2485-1234"
      },
      "geoResult": {
        "address": "Avenida Brasil, 13.350",
        "point": {
          "lng": -43.295532,
          "lat": -22.813959
        }
      }
    },
    {
      "name": "Corpo de Bombeiros Santa Cruz",
      "description": {
        "text": "Telefone:3395-1234"
      },
      "geoResult": {
        "address": "Praça Ruão, s/no",
        "point": {
          "lng": -43.684711,
          "lat": -22.914223
        }
      }
    },
    {
      "name": "Corpo de Bombeiros Aeroporto Santos Dumont",
      "description": {
        "text": "Telefone:3814-7421"
      },
      "geoResult": {
        "address": "Praca Senador Salgado Filho, s/n",
        "point": {
          "lng": -43.167934,
          "lat": -22.911509
        }
      }
    },
    {
      "name": "Corpo de Bombeiros Praia de Ramos",
      "description": {
        "text": "Telefone:2560-3565"
      },
      "geoResult": {
        "address": "Avenida Guanabara, s/n",
        "point": {
          "lng": -43.249664,
          "lat": -22.841448
        }
      }
    },
    {
      "name": "Corpo de Bombeiros Ilha do Fundao",
      "description": {
        "text": "Telefone:38858062"
      },
      "geoResult": {
        "address": "Avenida Brigadeiro Trompowski, s/n",
        "point": {
          "lng": -43.232185,
          "lat": -22.840303
        }
      }
    },
    {
      "name": "3º Grupamento Maritimo Copacabana",
      "description": {
        "text": "Telefone:2287-2121 / 2287-679"
      },
      "geoResult": {
        "address": "Praca Eugenio Franco, 2",
        "point": {
          "lng": -43.18795,
          "lat": -22.986164
        }
      }
    },
    {
      "name": "Corpo de Bombeiros Maracana",
      "description": {
        "text": "Telefone:3872-8196"
      },
      "geoResult": {
        "address": "Rua Eurico Rabelo, Portão 15 - Estádio do Maracanã",
        "point": {
          "lng": -43.231091,
          "lat": -22.91346
        }
      }
    },
    {
      "name": "1º Grupamento Maritimo Botafogo",
      "description": {
        "text": "Telefone:2295-8585"
      },
      "geoResult": {
        "address": "Rua Reporter Nestor Moreira, 11",
        "point": {
          "lng": -43.178654,
          "lat": -22.949286
        }
      }
    },
    {
      "name": "Corpo de Bombeiros Lagoa",
      "description": {
        "text": "Telefone:2274-2294"
      },
      "geoResult": {
        "address": "Avenida Borges de Medeiros, 1.444",
        "point": {
          "lng": -43.21777,
          "lat": -22.974325
        }
      }
    },
    {
      "name": "1º Grupamento de Socorro Florestal e Meio Ambiente",
      "description": {
        "text": "Telefone:2287-2121 / 2287-679"
      },
      "geoResult": {
        "address": "Rua Alto da Boa Vista, 196",
        "point": {
          "lng": -43.277851,
          "lat": -22.966089
        }
      }
    }
  ],
  "delegacias": [
    {
      "name": "DRF - Delegacia de Roubos e Furtos",
      "description": {
        "text": "Telefone:2233-2701"
      },
      "geoResult": {
        "address": "Praca Maua, 5 - Centro",
        "point": {
          "lng": -43.181976,
          "lat": -22.896893
        }
      }
    },
    {
      "name": "DRE - Delegacia de Repressao a Entorpecentes",
      "description": {
        "text": "Telefone:2399-3291"
      },
      "geoResult": {
        "address": "Avenida Suburbana, 6.860 - Piedade",
        "point": {
          "lng": -43.295223,
          "lat": -22.881887
        }
      }
    },
    {
      "name": "DEAC - Delegacia Especial de Acervo Cartorário",
      "description": {
        "text": "Telefone:2224-4493"
      },
      "geoResult": {
        "address": "Rua do Lavradio, 155 - Lapa",
        "point": {
          "lng": -43.181915,
          "lat": -22.912577
        }
      }
    },
    {
      "name": "DELTRAN - Delegacia Especial de Transito",
      "description": {
        "text": "Telefone:2399-3250"
      },
      "geoResult": {
        "address": "Rua Silvino Montenegro, 1 / 4º andar - Gamboa",
        "point": {
          "lng": -43.190773,
          "lat": -22.893183
        }
      }
    },
    {
      "name": "DELFAZ - Delegacia de Policia Fazendaria",
      "description": {
        "text": "Telefone:2399-3658"
      },
      "geoResult": {
        "address": "Rua Silvino Montenegro, 1 / 4º andar - Gamboa",
        "point": {
          "lng": -43.190834,
          "lat": -22.893406
        }
      }
    },
    {
      "name": "DH - Delegacia de Homicidios",
      "description": {
        "text": "Telefone:2242-1938 / 2399-3600 / 2399-3601"
      },
      "geoResult": {
        "address": "Rua da Relacao, 42 / 7º andar - Centro",
        "point": {
          "lng": -43.184345,
          "lat": -22.91024
        }
      }
    },
    {
      "name": "DMMA - Delegacia Movel de Meio Ambiente",
      "description": {
        "text": "Telefone:2399-7191"
      },
      "geoResult": {
        "address": "Praca Desembargador Araujo Jorge, s/n",
        "point": {
          "lng": -43.296944,
          "lat": -23.010885
        }
      }
    },
    {
      "name": "DRCI - Delegacia de Repressao aos Crimes de Informatica",
      "description": {
        "text": "Telefone:3399-3201 / 3399-3202"
      },
      "geoResult": {
        "address": "Rua da Relacao, 42 / 8º andar - Centro",
        "point": {
          "lng": -43.184326,
          "lat": -22.91029
        }
      }
    },
    {
      "name": "1º DP - Praca Maua",
      "description": {
        "text": "Telefone:3399-5000"
      },
      "geoResult": {
        "address": "Praca Maua, 5 / 2º andar",
        "point": {
          "lng": -43.18198,
          "lat": -22.896904
        }
      }
    },
    {
      "name": "4º DP - Central do Brasil",
      "description": {
        "text": "Telefone:3399-5010"
      },
      "geoResult": {
        "address": "Praca da Republica, 111",
        "point": {
          "lng": -43.18977,
          "lat": -22.908216
        }
      }
    },
    {
      "name": "5º DP - Mem de Sa",
      "description": {
        "text": "Telefone:3399-5050"
      },
      "geoResult": {
        "address": "Avenida Gomes Freire, 320",
        "point": {
          "lng": -43.184322,
          "lat": -22.910038
        }
      }
    },
    {
      "name": "6º DP - Cidade Nova",
      "description": {
        "text": "Telefone:3399-5020"
      },
      "geoResult": {
        "address": "Rua Professor Clementino Fraga, 77",
        "point": {
          "lng": -43.196163,
          "lat": -22.908819
        }
      }
    },
    {
      "name": "7º DP - Santa Tereza",
      "description": {
        "text": "Telefone:3399-5070"
      },
      "geoResult": {
        "address": "Rua Francisco de Castro, 5",
        "point": {
          "lng": -43.187237,
          "lat": -22.92424
        }
      }
    },
    {
      "name": "10º DP - Botafogo",
      "description": {
        "text": "Telefone:3399-7110"
      },
      "geoResult": {
        "address": "Rua Bambina, 140",
        "point": {
          "lng": -43.186169,
          "lat": -22.947844
        }
      }
    },
    {
      "name": "12º DP - Copacabana",
      "description": {
        "text": "Telefone:3399-7070"
      },
      "geoResult": {
        "address": "Rua Hilario de Gouveia, 102",
        "point": {
          "lng": -43.184448,
          "lat": -22.967484
        }
      }
    },
    {
      "name": "13º DP - Ipanema",
      "description": {
        "text": "Telefone:3399-7090"
      },
      "geoResult": {
        "address": "Avenida Nossa Senhora de Copacabana, 1.260",
        "point": {
          "lng": -43.191078,
          "lat": -22.982761
        }
      }
    },
    {
      "name": "15º DP - Gavea",
      "description": {
        "text": "Telefone:3399-7040"
      },
      "geoResult": {
        "address": "Rua Major Rubens Vaz, 170",
        "point": {
          "lng": -43.225838,
          "lat": -22.972284
        }
      }
    },
    {
      "name": "16º DP - Barra da Tijuca",
      "description": {
        "text": "Telefone:3399-7140"
      },
      "geoResult": {
        "address": "Rua General Ivan Raposo, s/no",
        "point": {
          "lng": -43.314167,
          "lat": -23.012333
        }
      }
    },
    {
      "name": "14º DP - Leblon",
      "description": {
        "text": "Telefone:3399-7120"
      },
      "geoResult": {
        "address": "Rua Humberto de Campos, 315",
        "point": {
          "lng": -43.218605,
          "lat": -22.981733
        }
      }
    },
    {
      "name": "17º DP - Sao Cristovao",
      "description": {
        "text": "Telefone:3399-5030"
      },
      "geoResult": {
        "address": "Rua Sao Cristovao, 309",
        "point": {
          "lng": -43.2187,
          "lat": -22.904377
        }
      }
    },
    {
      "name": "18º DP - Praca da Bandeira",
      "description": {
        "text": "Telefone:3399-5040"
      },
      "geoResult": {
        "address": "Rua Barao de Iguatemi, 331",
        "point": {
          "lng": -43.214405,
          "lat": -22.91316
        }
      }
    },
    {
      "name": "19º DP - Tijuca",
      "description": {
        "text": "Telefone:3399-5080"
      },
      "geoResult": {
        "address": "Rua General Espirito Santo Cardoso, 208",
        "point": {
          "lng": -43.24469,
          "lat": -22.93058
        }
      }
    },
    {
      "name": "20º DP - Vila Isabel",
      "description": {
        "text": "Telefone:3399-5090"
      },
      "geoResult": {
        "address": "Rua Leopoldo, 280",
        "point": {
          "lng": -43.251999,
          "lat": -22.927748
        }
      }
    },
    {
      "name": "21º DP - Bonsucesso",
      "description": {
        "text": "Telefone:3399-6110"
      },
      "geoResult": {
        "address": "Avenida dos Democraticos, 1322",
        "point": {
          "lng": -43.258305,
          "lat": -22.872635
        }
      }
    },
    {
      "name": "22º DP - Penha",
      "description": {
        "text": "Telefone:3399-6220"
      },
      "geoResult": {
        "address": "Avenida Lobo Junior, 750",
        "point": {
          "lng": -43.276077,
          "lat": -22.827984
        }
      }
    },
    {
      "name": "23º DP - Meier",
      "description": {
        "text": "Telefone:3399-6330"
      },
      "geoResult": {
        "address": "Rua Aristides Caire, 80",
        "point": {
          "lng": -43.277866,
          "lat": -22.899025
        }
      }
    },
    {
      "name": "25º DP - Engenho Novo",
      "description": {
        "text": "Telefone:3399-6250"
      },
      "geoResult": {
        "address": "Rua Vinte e Quatro de Maio, 983",
        "point": {
          "lng": -43.268986,
          "lat": -22.903183
        }
      }
    },
    {
      "name": "24º DP - Todos os Santos",
      "description": {
        "text": "Telefone:3399-6260"
      },
      "geoResult": {
        "address": "Rua Adriano, 304",
        "point": {
          "lng": -43.29031,
          "lat": -22.902424
        }
      }
    },
    {
      "name": "27º DP - Vicente de Carvalho",
      "description": {
        "text": "Telefone:3399-6270"
      },
      "geoResult": {
        "address": "Avenida Meriti, 486",
        "point": {
          "lng": -43.307915,
          "lat": -22.85346
        }
      }
    },
    {
      "name": "28º DP - Campinho",
      "description": {
        "text": "Telefone:3399-6280"
      },
      "geoResult": {
        "address": "Rua Candido Benicio, 727",
        "point": {
          "lng": -43.346085,
          "lat": -22.889305
        }
      }
    },
    {
      "name": "29º DP - Madureira",
      "description": {
        "text": "Telefone:3399-6290"
      },
      "geoResult": {
        "address": "Avenida Ministro Edgard Romero, 227",
        "point": {
          "lng": -43.336205,
          "lat": -22.871433
        }
      }
    },
    {
      "name": "30º DP - Marechal Hermes",
      "description": {
        "text": "Telefone:3399-6300"
      },
      "geoResult": {
        "address": "Rua General Oswaldo Cordeiro de Faria, 340",
        "point": {
          "lng": -43.373402,
          "lat": -22.864317
        }
      }
    },
    {
      "name": "37º DP - Ilha do Governador",
      "description": {
        "text": "Telefone:3393-5211"
      },
      "geoResult": {
        "address": "Estrada do Galeao, 1.365",
        "point": {
          "lng": -43.196739,
          "lat": -22.80829
        }
      }
    },
    {
      "name": "38º DP - Irajá",
      "description": {
        "text": "Telefone:3399-6380"
      },
      "geoResult": {
        "address": "Avenida Bras de Pina, 1.115",
        "point": {
          "lng": -43.301193,
          "lat": -22.840784
        }
      }
    },
    {
      "name": "40º DP - Honorio Gurgel",
      "description": {
        "text": "Telefone:3399-6400"
      },
      "geoResult": {
        "address": "Rua Guarama, 40 - n. porta= 15",
        "point": {
          "lng": -43.349026,
          "lat": -22.840567
        }
      }
    },
    {
      "name": "34º DP - Bangu",
      "description": {
        "text": "Telefone:3399-5640"
      },
      "geoResult": {
        "address": "Rua Sabogi, 51",
        "point": {
          "lng": -43.46312,
          "lat": -22.874491
        }
      }
    },
    {
      "name": "32º DP - Jacarepagua",
      "description": {
        "text": "Telefone:3399-7160"
      },
      "geoResult": {
        "address": "Rua Henriqueta, 197",
        "point": {
          "lng": -43.358593,
          "lat": -22.91972
        }
      }
    },
    {
      "name": "35º DP - Campo Grande",
      "description": {
        "text": "Telefone:3399-5650"
      },
      "geoResult": {
        "address": "Avenida Maria Tereza, Lt 8/9/10",
        "point": {
          "lng": -43.56649,
          "lat": -22.90432
        }
      }
    },
    {
      "name": "39º DP - Pavuna",
      "description": {
        "text": "Telefone:3399-6390"
      },
      "geoResult": {
        "address": "Rua Sargento de Milicias, s/n",
        "point": {
          "lng": -43.363773,
          "lat": -22.805235
        }
      }
    },
    {
      "name": "31º DP - Ricardo de Albuquerque",
      "description": {
        "text": "Telefone:3399-6310"
      },
      "geoResult": {
        "address": "Avenida Marechal Alencastro, 4933 - QD. B",
        "point": {
          "lng": -43.403484,
          "lat": -22.824648
        }
      }
    },
    {
      "name": "33º DP - Realengo",
      "description": {
        "text": "Telefone:3399-5630"
      },
      "geoResult": {
        "address": "Rua Bernardo de Vasconcelos, 1780",
        "point": {
          "lng": -43.43692,
          "lat": -22.875723
        }
      }
    },
    {
      "name": "36º DP - Santa Cruz",
      "description": {
        "text": "Telefone:3399-5660"
      },
      "geoResult": {
        "address": "Avenida Dom Joao VI, 67",
        "point": {
          "lng": -43.684471,
          "lat": -22.914433
        }
      }
    },
    {
      "name": "DAS - Divisao Anti-Sequestro",
      "description": {
        "text": "Telefone:2259-9477"
      },
      "geoResult": {
        "address": "Avenida Afranio de Melo Franco, 159 - Leblon",
        "point": {
          "lng": -43.218399,
          "lat": -22.98173
        }
      }
    },
    {
      "name": "DC Polinter - Divisao de Captura de Policia",
      "description": {
        "text": "Telefone:2399-3780"
      },
      "geoResult": {
        "address": "Rua Silvino Montenegro, 1 / 2º andar - Gamboa",
        "point": {
          "lng": -43.190777,
          "lat": -22.893225
        }
      }
    },
    {
      "name": "DDEF - Delegacia de Defraudacoes",
      "description": {
        "text": "Telefone:2399-3671"
      },
      "geoResult": {
        "address": "Rua Silvino Montenegro, 1 / 4º andar - Gamboa",
        "point": {
          "lng": -43.190807,
          "lat": -22.893303
        }
      }
    },
    {
      "name": "DEAM Rio - Delegacia Especial de Atendimento a Mulher",
      "description": {
        "text": "Telefone:2399-3690"
      },
      "geoResult": {
        "address": "Rua Silvino Montenegro, 1 / 3º andar - Gamboa",
        "point": {
          "lng": -43.190819,
          "lat": -22.893372
        }
      }
    },
    {
      "name": "DEAM Rio-Oeste - Delegacia Especial de Atendimento a Mulher",
      "description": {
        "text": "Telefone:2232-1262"
      },
      "geoResult": {
        "address": "Avenida Cesario de Mello, 4.138 - Campo Grande",
        "point": {
          "lng": -43.571419,
          "lat": -22.906878
        }
      }
    },
    {
      "name": "DEAPTI - Delegacia Especial de Atendimento a Pessoas da Terceira Idade",
      "description": {
        "text": "Telefone:2232-1262"
      },
      "geoResult": {
        "address": "Rua da Relacao, 42 - terreo - Centro",
        "point": {
          "lng": -43.184425,
          "lat": -22.910271
        }
      }
    },
    {
      "name": "DEAT - Delegacia de Atendimento ao Turista",
      "description": {
        "text": "Telefone:2399-7170 / 2511-5767 / 2511-5881"
      },
      "geoResult": {
        "address": "Avenida Afranio de Mello Franco, s/n - Leblon",
        "point": {
          "lng": -43.218388,
          "lat": -22.981726
        }
      }
    },
    {
      "name": "DPCA - Delegacia de Protecao a Crianca e ao Adolescente",
      "description": {
        "text": "Telefone:2399--3680"
      },
      "geoResult": {
        "address": "Rua Benedito Hipolito, 163 / 2º andar - Cidade Nova",
        "point": {
          "lng": -43.198883,
          "lat": -22.908924
        }
      }
    },
    {
      "name": "DRCCSP - Delegacia de Repressao a Crimes contra a Saude Publica",
      "description": {
        "text": "Telefone:2399-3372 / 2399-3379"
      },
      "geoResult": {
        "address": "Avenida Graca Aranha, 169 - terreo - Centro",
        "point": {
          "lng": -43.174824,
          "lat": -22.908236
        }
      }
    },
    {
      "name": "DRFC - Delegacia de Roubos e Furtos de Cargas",
      "description": {
        "text": "Telefone:2399-3800 / 2474-2441"
      },
      "geoResult": {
        "address": "Praca Alencastro Guimaraes, 86 - Pavuna",
        "point": {
          "lng": -43.35479,
          "lat": -22.817083
        }
      }
    },
    {
      "name": "DRFVAT - Delegacia de Roubos e Furtos de Veiculos",
      "description": {
        "text": "Telefone:2399-3638"
      },
      "geoResult": {
        "address": "Rua Celio Nascimento, 33 - Benfica",
        "point": {
          "lng": -43.236015,
          "lat": -22.88892
        }
      }
    },
    {
      "name": "DSD - Delegacia Supervisora de Dia",
      "description": {
        "text": "Telefone:2399-3024"
      },
      "geoResult": {
        "address": "Rua da Relacao, 42 - terreo - Centro",
        "point": {
          "lng": -43.184383,
          "lat": -22.910305
        }
      }
    }
  ],
  "escolas": [
    {
      "name": "C. C. Professor Walter Carlos de Magalhães Fraenkel",
      "description": {
        "text": "<b></b><br><i>Rua Carlos Seidl, 1.141  </i><br><iframe style=\"background-color:#FFF\"frameborder=0 src=http://webapp.sme.rio.rj.gov.br/jcartela/publico/pesquisa.do?cmd=load&idSetor= width=320 height=240></iframe><br /><br /><iframe frameborder=0 src=http://riomidia.cor.rio.gov.br/pub/frotas_distancia.cfm?latitude=-22.8784&longitude=-43.2241&ponto=109503 width=320 height=300></iframe><br />",
        "information_urls": [
          {
            "url": "http://webapp.sme.rio.rj.gov.br/jcartela/publico/pesquisa.do?cmd=load&idSetor="
          },
          {
            "url": "http://riomidia.cor.rio.gov.br/pub/frotas_distancia.cfm?latitude=-22.8784&longitude=-43.2241&ponto=109503"
          }
        ]
      },
      "ilustration": {
        "icon": "http://riomidia.cor.rio.gov.br//pub/imagem/_escolas_green.png"
      },
      "geoResult": {
        "point": {
          "lng": -43.2241,
          "lat": -22.8784
        }
      },
      "taxonomies": [
        {
          "type": "Funcionamento",
          "value": "Funcionamento normal"
        }
      ]
    },
    {
      "name": "C.C. Casa de São Roque",
      "description": {
        "text": "<b></b><br><i>Rua Visconde de Tocantins, 34</i><br><iframe style=\"background-color:#FFF\"frameborder=0 src=http://webapp.sme.rio.rj.gov.br/jcartela/publico/pesquisa.do?cmd=load&idSetor= width=320 height=240></iframe><br /><br /><iframe frameborder=0 src=http://riomidia.cor.rio.gov.br/pub/frotas_distancia.cfm?latitude=-22.8971&longitude=-43.2805&ponto=109504 width=320 height=300></iframe><br />",
        "information_urls": [
          {
            "url": "http://webapp.sme.rio.rj.gov.br/jcartela/publico/pesquisa.do?cmd=load&idSetor="
          },
          {
            "url": "http://riomidia.cor.rio.gov.br/pub/frotas_distancia.cfm?latitude=-22.8971&longitude=-43.2805&ponto=109504"
          }
        ]
      },
      "ilustration": {
        "icon": "http://riomidia.cor.rio.gov.br//pub/imagem/_escolas_green.png"
      },
      "geoResult": {
        "point": {
          "lng": -43.2805,
          "lat": -22.8971
        }
      },
      "taxonomies": [
        {
          "type": "Funcionamento",
          "value": "Funcionamento normal"
        }
      ]
    },
    {
      "name": "Casa da Criança Amarelinho",
      "description": {
        "text": "<b></b><br><i>Av. Brasil, 18.476  </i><br><iframe style=\"background-color:#FFF\"frameborder=0 src=http://webapp.sme.rio.rj.gov.br/jcartela/publico/pesquisa.do?cmd=load&idSetor= width=320 height=240></iframe><br /><br /><iframe frameborder=0 src=http://riomidia.cor.rio.gov.br/pub/frotas_distancia.cfm?latitude=-22.8261&longitude=-43.3393&ponto=109486 width=320 height=300></iframe><br />",
        "information_urls": [
          {
            "url": "http://webapp.sme.rio.rj.gov.br/jcartela/publico/pesquisa.do?cmd=load&idSetor="
          },
          {
            "url": "http://riomidia.cor.rio.gov.br/pub/frotas_distancia.cfm?latitude=-22.8261&longitude=-43.3393&ponto=109486"
          }
        ]
      },
      "ilustration": {
        "icon": "http://riomidia.cor.rio.gov.br//pub/imagem/_escolas_green.png"
      },
      "geoResult": {
        "point": {
          "lng": -43.3393,
          "lat": -22.8261
        }
      },
      "taxonomies": [
        {
          "type": "Funcionamento",
          "value": "Funcionamento normal"
        }
      ]
    },
    {
      "name": "Casa da Criança Borel I",
      "description": {
        "text": "<b></b><br><i>Rua São Miguel, S/Nº  </i><br><iframe style=\"background-color:#FFF\"frameborder=0 src=http://webapp.sme.rio.rj.gov.br/jcartela/publico/pesquisa.do?cmd=load&idSetor= width=320 height=240></iframe><br /><br /><iframe frameborder=0 src=http://riomidia.cor.rio.gov.br/pub/frotas_distancia.cfm?latitude=-22.941&longitude=-43.2536&ponto=109470 width=320 height=300></iframe><br />",
        "information_urls": [
          {
            "url": "http://webapp.sme.rio.rj.gov.br/jcartela/publico/pesquisa.do?cmd=load&idSetor="
          },
          {
            "url": "http://riomidia.cor.rio.gov.br/pub/frotas_distancia.cfm?latitude=-22.941&longitude=-43.2536&ponto=109470"
          }
        ]
      },
      "ilustration": {
        "icon": "http://riomidia.cor.rio.gov.br//pub/imagem/_escolas_green.png"
      },
      "geoResult": {
        "point": {
          "lng": -43.2536,
          "lat": -22.941
        }
      },
      "taxonomies": [
        {
          "type": "Funcionamento",
          "value": "Funcionamento normal"
        }
      ]
    },
    {
      "name": "Casa da Criança Cesarinho",
      "description": {
        "text": "<b></b><br><i>Rua Mário F. de Souza, S/Nº - Conj. Cesarinho</i><br><iframe style=\"background-color:#FFF\"frameborder=0 src=http://webapp.sme.rio.rj.gov.br/jcartela/publico/pesquisa.do?cmd=load&idSetor= width=320 height=240></iframe><br /><br /><iframe frameborder=0 src=http://riomidia.cor.rio.gov.br/pub/frotas_distancia.cfm?latitude=-22.9218&longitude=-43.64&ponto=109471 width=320 height=300></iframe><br />",
        "information_urls": [
          {
            "url": "http://webapp.sme.rio.rj.gov.br/jcartela/publico/pesquisa.do?cmd=load&idSetor="
          },
          {
            "url": "http://riomidia.cor.rio.gov.br/pub/frotas_distancia.cfm?latitude=-22.9218&longitude=-43.64&ponto=109471"
          }
        ]
      },
      "ilustration": {
        "icon": "http://riomidia.cor.rio.gov.br//pub/imagem/_escolas_green.png"
      },
      "geoResult": {
        "point": {
          "lng": -43.64,
          "lat": -22.9218
        }
      },
      "taxonomies": [
        {
          "type": "Funcionamento",
          "value": "Funcionamento normal"
        }
      ]
    },
    {
      "name": "Casa da Criança Chácara do Céu",
      "description": {
        "text": "<b></b><br><i>Estr. da Independência, S/Nº - Borel </i><br><iframe style=\"background-color:#FFF\"frameborder=0 src=http://webapp.sme.rio.rj.gov.br/jcartela/publico/pesquisa.do?cmd=load&idSetor= width=320 height=240></iframe><br /><br /><iframe frameborder=0 src=http://riomidia.cor.rio.gov.br/pub/frotas_distancia.cfm?latitude=-22.9382&longitude=-43.2544&ponto=109472 width=320 height=300></iframe><br />",
        "information_urls": [
          {
            "url": "http://webapp.sme.rio.rj.gov.br/jcartela/publico/pesquisa.do?cmd=load&idSetor="
          },
          {
            "url": "http://riomidia.cor.rio.gov.br/pub/frotas_distancia.cfm?latitude=-22.9382&longitude=-43.2544&ponto=109472"
          }
        ]
      },
      "ilustration": {
        "icon": "http://riomidia.cor.rio.gov.br//pub/imagem/_escolas_green.png"
      },
      "geoResult": {
        "point": {
          "lng": -43.2544,
          "lat": -22.9382
        }
      },
      "taxonomies": [
        {
          "type": "Funcionamento",
          "value": "Funcionamento normal"
        }
      ]
    },
    {
      "name": "Casa da Criança Del Castilho",
      "description": {
        "text": "<b></b><br><i>Av. Dom Hélder Câmara, 3.732  </i><br><iframe style=\"background-color:#FFF\"frameborder=0 src=http://webapp.sme.rio.rj.gov.br/jcartela/publico/pesquisa.do?cmd=load&idSetor= width=320 height=240></iframe><br /><br /><iframe frameborder=0 src=http://riomidia.cor.rio.gov.br/pub/frotas_distancia.cfm?latitude=-22.8806&longitude=-43.2704&ponto=109473 width=320 height=300></iframe><br />",
        "information_urls": [
          {
            "url": "http://webapp.sme.rio.rj.gov.br/jcartela/publico/pesquisa.do?cmd=load&idSetor="
          },
          {
            "url": "http://riomidia.cor.rio.gov.br/pub/frotas_distancia.cfm?latitude=-22.8806&longitude=-43.2704&ponto=109473"
          }
        ]
      },
      "ilustration": {
        "icon": "http://riomidia.cor.rio.gov.br//pub/imagem/_escolas_green.png"
      },
      "geoResult": {
        "point": {
          "lng": -43.2704,
          "lat": -22.8806
        }
      },
      "taxonomies": [
        {
          "type": "Funcionamento",
          "value": "Funcionamento normal"
        }
      ]
    },
    {
      "name": "Casa da Criança Deodoro",
      "description": {
        "text": "<b></b><br><i>Estr. Marechal Alencastro, S/Nº  </i><br><iframe style=\"background-color:#FFF\"frameborder=0 src=http://webapp.sme.rio.rj.gov.br/jcartela/publico/pesquisa.do?cmd=load&idSetor= width=320 height=240></iframe><br /><br /><iframe frameborder=0 src=http://riomidia.cor.rio.gov.br/pub/frotas_distancia.cfm?latitude=-22.8558&longitude=-43.3899&ponto=109474 width=320 height=300></iframe><br />",
        "information_urls": [
          {
            "url": "http://webapp.sme.rio.rj.gov.br/jcartela/publico/pesquisa.do?cmd=load&idSetor="
          },
          {
            "url": "http://riomidia.cor.rio.gov.br/pub/frotas_distancia.cfm?latitude=-22.8558&longitude=-43.3899&ponto=109474"
          }
        ]
      },
      "ilustration": {
        "icon": "http://riomidia.cor.rio.gov.br//pub/imagem/_escolas_green.png"
      },
      "geoResult": {
        "point": {
          "lng": -43.3899,
          "lat": -22.8558
        }
      },
      "taxonomies": [
        {
          "type": "Funcionamento",
          "value": "Funcionamento normal"
        }
      ]
    },
    {
      "name": "Casa da Criança Engenho da Rainha",
      "description": {
        "text": "<b></b><br><i>Praça 13 de Julho, 20  </i><br><iframe style=\"background-color:#FFF\"frameborder=0 src=http://webapp.sme.rio.rj.gov.br/jcartela/publico/pesquisa.do?cmd=load&idSetor= width=320 height=240></iframe><br /><br /><iframe frameborder=0 src=http://riomidia.cor.rio.gov.br/pub/frotas_distancia.cfm?latitude=-22.8672&longitude=-43.2938&ponto=109810 width=320 height=300></iframe><br />",
        "information_urls": [
          {
            "url": "http://webapp.sme.rio.rj.gov.br/jcartela/publico/pesquisa.do?cmd=load&idSetor="
          },
          {
            "url": "http://riomidia.cor.rio.gov.br/pub/frotas_distancia.cfm?latitude=-22.8672&longitude=-43.2938&ponto=109810"
          }
        ]
      },
      "ilustration": {
        "icon": "http://riomidia.cor.rio.gov.br//pub/imagem/_escolas_green.png"
      },
      "geoResult": {
        "point": {
          "lng": -43.2938,
          "lat": -22.8672
        }
      },
      "taxonomies": [
        {
          "type": "Funcionamento",
          "value": "Funcionamento normal"
        }
      ]
    },
    {
      "name": "Casa da Criança Fazenda Botafogo II",
      "description": {
        "text": "<b></b><br><i>Rua Genésio Pires, S/Nº  </i><br><iframe style=\"background-color:#FFF\"frameborder=0 src=http://webapp.sme.rio.rj.gov.br/jcartela/publico/pesquisa.do?cmd=load&idSetor= width=320 height=240></iframe><br /><br /><iframe frameborder=0 src=http://riomidia.cor.rio.gov.br/pub/frotas_distancia.cfm?latitude=-22.8294&longitude=-43.3525&ponto=109811 width=320 height=300></iframe><br />",
        "information_urls": [
          {
            "url": "http://webapp.sme.rio.rj.gov.br/jcartela/publico/pesquisa.do?cmd=load&idSetor="
          },
          {
            "url": "http://riomidia.cor.rio.gov.br/pub/frotas_distancia.cfm?latitude=-22.8294&longitude=-43.3525&ponto=109811"
          }
        ]
      },
      "ilustration": {
        "icon": "http://riomidia.cor.rio.gov.br//pub/imagem/_escolas_green.png"
      },
      "geoResult": {
        "point": {
          "lng": -43.3525,
          "lat": -22.8294
        }
      },
      "taxonomies": [
        {
          "type": "Funcionamento",
          "value": "Funcionamento normal"
        }
      ]
    },
    {
      "name": "Casa da Criança Gouveias",
      "description": {
        "text": "<b></b><br><i>Praça Paulo de Tarso Celestino, S/Nº  </i><br><iframe style=\"background-color:#FFF\"frameborder=0 src=http://webapp.sme.rio.rj.gov.br/jcartela/publico/pesquisa.do?cmd=load&idSetor= width=320 height=240></iframe><br /><br /><iframe frameborder=0 src=http://riomidia.cor.rio.gov.br/pub/frotas_distancia.cfm?latitude=-22.9206&longitude=-43.6237&ponto=109795 width=320 height=300></iframe><br />",
        "information_urls": [
          {
            "url": "http://webapp.sme.rio.rj.gov.br/jcartela/publico/pesquisa.do?cmd=load&idSetor="
          },
          {
            "url": "http://riomidia.cor.rio.gov.br/pub/frotas_distancia.cfm?latitude=-22.9206&longitude=-43.6237&ponto=109795"
          }
        ]
      },
      "ilustration": {
        "icon": "http://riomidia.cor.rio.gov.br//pub/imagem/_escolas_green.png"
      },
      "geoResult": {
        "point": {
          "lng": -43.6237,
          "lat": -22.9206
        }
      },
      "taxonomies": [
        {
          "type": "Funcionamento",
          "value": "Funcionamento normal"
        }
      ]
    },
    {
      "name": "Casa da Criança Guadalupe",
      "description": {
        "text": "<b></b><br><i>Rua Jornalista Hermano Requião, S/Nº  </i><br><iframe style=\"background-color:#FFF\"frameborder=0 src=http://webapp.sme.rio.rj.gov.br/jcartela/publico/pesquisa.do?cmd=load&idSetor= width=320 height=240></iframe><br /><br /><iframe frameborder=0 src=http://riomidia.cor.rio.gov.br/pub/frotas_distancia.cfm?latitude=-22.8494&longitude=-43.3762&ponto=109778 width=320 height=300></iframe><br />",
        "information_urls": [
          {
            "url": "http://webapp.sme.rio.rj.gov.br/jcartela/publico/pesquisa.do?cmd=load&idSetor="
          },
          {
            "url": "http://riomidia.cor.rio.gov.br/pub/frotas_distancia.cfm?latitude=-22.8494&longitude=-43.3762&ponto=109778"
          }
        ]
      },
      "ilustration": {
        "icon": "http://riomidia.cor.rio.gov.br//pub/imagem/_escolas_green.png"
      },
      "geoResult": {
        "point": {
          "lng": -43.3762,
          "lat": -22.8494
        }
      },
      "taxonomies": [
        {
          "type": "Funcionamento",
          "value": "Funcionamento normal"
        }
      ]
    },
    {
      "name": "Casa da Criança Guandu",
      "description": {
        "text": "<b></b><br><i>Rua Um, Conjunto Hab. Guandu, Lote 217  </i><br><iframe style=\"background-color:#FFF\"frameborder=0 src=http://webapp.sme.rio.rj.gov.br/jcartela/publico/pesquisa.do?cmd=load&idSetor= width=320 height=240></iframe><br /><br /><iframe frameborder=0 src=http://riomidia.cor.rio.gov.br/pub/frotas_distancia.cfm?latitude=-22.9016&longitude=-43.7114&ponto=109779 width=320 height=300></iframe><br />",
        "information_urls": [
          {
            "url": "http://webapp.sme.rio.rj.gov.br/jcartela/publico/pesquisa.do?cmd=load&idSetor="
          },
          {
            "url": "http://riomidia.cor.rio.gov.br/pub/frotas_distancia.cfm?latitude=-22.9016&longitude=-43.7114&ponto=109779"
          }
        ]
      },
      "ilustration": {
        "icon": "http://riomidia.cor.rio.gov.br//pub/imagem/_escolas_green.png"
      },
      "geoResult": {
        "point": {
          "lng": -43.7114,
          "lat": -22.9016
        }
      },
      "taxonomies": [
        {
          "type": "Funcionamento",
          "value": "Funcionamento normal"
        }
      ]
    },
    {
      "name": "Casa da Criança Isabel",
      "description": {
        "text": "<b></b><br><i>Av. Cesário de Melo, 5.580 - Benjamin Dumont  </i><br><iframe style=\"background-color:#FFF\"frameborder=0 src=http://webapp.sme.rio.rj.gov.br/jcartela/publico/pesquisa.do?cmd=load&idSetor= width=320 height=240></iframe><br /><br /><iframe frameborder=0 src=http://riomidia.cor.rio.gov.br/pub/frotas_distancia.cfm?latitude=-22.9103&longitude=-43.5862&ponto=109780 width=320 height=300></iframe><br />",
        "information_urls": [
          {
            "url": "http://webapp.sme.rio.rj.gov.br/jcartela/publico/pesquisa.do?cmd=load&idSetor="
          },
          {
            "url": "http://riomidia.cor.rio.gov.br/pub/frotas_distancia.cfm?latitude=-22.9103&longitude=-43.5862&ponto=109780"
          }
        ]
      },
      "ilustration": {
        "icon": "http://riomidia.cor.rio.gov.br//pub/imagem/_escolas_green.png"
      },
      "geoResult": {
        "point": {
          "lng": -43.5862,
          "lat": -22.9103
        }
      },
      "taxonomies": [
        {
          "type": "Funcionamento",
          "value": "Funcionamento normal"
        }
      ]
    },
    {
      "name": "Casa da Criança IV Centenário",
      "description": {
        "text": "<b></b><br><i>Rua Caungula, 15  </i><br><iframe style=\"background-color:#FFF\"frameborder=0 src=http://webapp.sme.rio.rj.gov.br/jcartela/publico/pesquisa.do?cmd=load&idSetor=11683 width=320 height=240></iframe><br /><br /><iframe frameborder=0 src=http://riomidia.cor.rio.gov.br/pub/frotas_distancia.cfm?latitude=-22.9532&longitude=-43.3768&ponto=109781 width=320 height=300></iframe><br />",
        "information_urls": [
          {
            "url": "http://webapp.sme.rio.rj.gov.br/jcartela/publico/pesquisa.do?cmd=load&idSetor=11683"
          },
          {
            "url": "http://riomidia.cor.rio.gov.br/pub/frotas_distancia.cfm?latitude=-22.9532&longitude=-43.3768&ponto=109781"
          }
        ]
      },
      "ilustration": {
        "icon": "http://riomidia.cor.rio.gov.br//pub/imagem/_escolas_green.png"
      },
      "geoResult": {
        "point": {
          "lng": -43.3768,
          "lat": -22.9532
        }
      },
      "taxonomies": [
        {
          "type": "Funcionamento",
          "value": "Funcionamento normal"
        }
      ]
    },
    {
      "name": "Casa da Criança Jardim Guadalajara I",
      "description": {
        "text": "<b></b><br><i>Trav. Yucatan, S/Nº  </i><br><iframe style=\"background-color:#FFF\"frameborder=0 src=http://webapp.sme.rio.rj.gov.br/jcartela/publico/pesquisa.do?cmd=load&idSetor= width=320 height=240></iframe><br /><br /><iframe frameborder=0 src=http://riomidia.cor.rio.gov.br/pub/frotas_distancia.cfm?latitude=-22.8635&longitude=-43.2762&ponto=109782 width=320 height=300></iframe><br />",
        "information_urls": [
          {
            "url": "http://webapp.sme.rio.rj.gov.br/jcartela/publico/pesquisa.do?cmd=load&idSetor="
          },
          {
            "url": "http://riomidia.cor.rio.gov.br/pub/frotas_distancia.cfm?latitude=-22.8635&longitude=-43.2762&ponto=109782"
          }
        ]
      },
      "ilustration": {
        "icon": "http://riomidia.cor.rio.gov.br//pub/imagem/_escolas_green.png"
      },
      "geoResult": {
        "point": {
          "lng": -43.2762,
          "lat": -22.8635
        }
      },
      "taxonomies": [
        {
          "type": "Funcionamento",
          "value": "Funcionamento normal"
        }
      ]
    },
    {
      "name": "Casa da Criança Jardim Guararapes",
      "description": {
        "text": "<b></b><br><i>Rua São Teodósio, S/Nº  </i><br><iframe style=\"background-color:#FFF\"frameborder=0 src=http://webapp.sme.rio.rj.gov.br/jcartela/publico/pesquisa.do?cmd=load&idSetor= width=320 height=240></iframe><br /><br /><iframe frameborder=0 src=http://riomidia.cor.rio.gov.br/pub/frotas_distancia.cfm?latitude=-22.9018&longitude=-43.6004&ponto=109783 width=320 height=300></iframe><br />",
        "information_urls": [
          {
            "url": "http://webapp.sme.rio.rj.gov.br/jcartela/publico/pesquisa.do?cmd=load&idSetor="
          },
          {
            "url": "http://riomidia.cor.rio.gov.br/pub/frotas_distancia.cfm?latitude=-22.9018&longitude=-43.6004&ponto=109783"
          }
        ]
      },
      "ilustration": {
        "icon": "http://riomidia.cor.rio.gov.br//pub/imagem/_escolas_green.png"
      },
      "geoResult": {
        "point": {
          "lng": -43.6004,
          "lat": -22.9018
        }
      },
      "taxonomies": [
        {
          "type": "Funcionamento",
          "value": "Funcionamento normal"
        }
      ]
    },
    {
      "name": "Casa da Criança João Corrêa",
      "description": {
        "text": "<b></b><br><i>Rua Alberi Vieira dos Santos, S/Nº - Urucânia</i><br><iframe style=\"background-color:#FFF\"frameborder=0 src=http://webapp.sme.rio.rj.gov.br/jcartela/publico/pesquisa.do?cmd=load&idSetor= width=320 height=240></iframe><br /><br /><iframe frameborder=0 src=http://riomidia.cor.rio.gov.br/pub/frotas_distancia.cfm?latitude=-22.9169&longitude=-43.6548&ponto=109784 width=320 height=300></iframe><br />",
        "information_urls": [
          {
            "url": "http://webapp.sme.rio.rj.gov.br/jcartela/publico/pesquisa.do?cmd=load&idSetor="
          },
          {
            "url": "http://riomidia.cor.rio.gov.br/pub/frotas_distancia.cfm?latitude=-22.9169&longitude=-43.6548&ponto=109784"
          }
        ]
      },
      "ilustration": {
        "icon": "http://riomidia.cor.rio.gov.br//pub/imagem/_escolas_green.png"
      },
      "geoResult": {
        "point": {
          "lng": -43.6548,
          "lat": -22.9169
        }
      },
      "taxonomies": [
        {
          "type": "Funcionamento",
          "value": "Funcionamento normal"
        }
      ]
    },
    {
      "name": "Casa da Criança Joari",
      "description": {
        "text": "<b></b><br><i>Rua Berizal, S/Nº - Centro</i><br><iframe style=\"background-color:#FFF\"frameborder=0 src=http://webapp.sme.rio.rj.gov.br/jcartela/publico/pesquisa.do?cmd=load&idSetor= width=320 height=240></iframe><br /><br /><iframe frameborder=0 src=http://riomidia.cor.rio.gov.br/pub/frotas_distancia.cfm?latitude=-22.9138&longitude=-43.5526&ponto=109785 width=320 height=300></iframe><br />",
        "information_urls": [
          {
            "url": "http://webapp.sme.rio.rj.gov.br/jcartela/publico/pesquisa.do?cmd=load&idSetor="
          },
          {
            "url": "http://riomidia.cor.rio.gov.br/pub/frotas_distancia.cfm?latitude=-22.9138&longitude=-43.5526&ponto=109785"
          }
        ]
      },
      "ilustration": {
        "icon": "http://riomidia.cor.rio.gov.br//pub/imagem/_escolas_green.png"
      },
      "geoResult": {
        "point": {
          "lng": -43.5526,
          "lat": -22.9138
        }
      },
      "taxonomies": [
        {
          "type": "Funcionamento",
          "value": "Funcionamento normal"
        }
      ]
    },
    {
      "name": "Casa da Criança Maria de Jesus Oliveira",
      "description": {
        "text": "<b></b><br><i>Rua Conceição de Ipanema Lote 14, S/Nº  </i><br><iframe style=\"background-color:#FFF\"frameborder=0 src=http://webapp.sme.rio.rj.gov.br/jcartela/publico/pesquisa.do?cmd=load&idSetor= width=320 height=240></iframe><br /><br /><iframe frameborder=0 src=http://riomidia.cor.rio.gov.br/pub/frotas_distancia.cfm?latitude=-22.9046&longitude=-43.672&ponto=109769 width=320 height=300></iframe><br />",
        "information_urls": [
          {
            "url": "http://webapp.sme.rio.rj.gov.br/jcartela/publico/pesquisa.do?cmd=load&idSetor="
          },
          {
            "url": "http://riomidia.cor.rio.gov.br/pub/frotas_distancia.cfm?latitude=-22.9046&longitude=-43.672&ponto=109769"
          }
        ]
      },
      "ilustration": {
        "icon": "http://riomidia.cor.rio.gov.br//pub/imagem/_escolas_green.png"
      },
      "geoResult": {
        "point": {
          "lng": -43.672,
          "lat": -22.9046
        }
      },
      "taxonomies": [
        {
          "type": "Funcionamento",
          "value": "Funcionamento normal"
        }
      ]
    },
    {
      "name": "Casa da Criança Morro dos Telégrafos",
      "description": {
        "text": "<b></b><br><i>Rua Jupará, 91  </i><br><iframe style=\"background-color:#FFF\"frameborder=0 src=http://webapp.sme.rio.rj.gov.br/jcartela/publico/pesquisa.do?cmd=load&idSetor= width=320 height=240></iframe><br /><br /><iframe frameborder=0 src=http://riomidia.cor.rio.gov.br/pub/frotas_distancia.cfm?latitude=-22.9002&longitude=-43.2366&ponto=109751 width=320 height=300></iframe><br />",
        "information_urls": [
          {
            "url": "http://webapp.sme.rio.rj.gov.br/jcartela/publico/pesquisa.do?cmd=load&idSetor="
          },
          {
            "url": "http://riomidia.cor.rio.gov.br/pub/frotas_distancia.cfm?latitude=-22.9002&longitude=-43.2366&ponto=109751"
          }
        ]
      },
      "ilustration": {
        "icon": "http://riomidia.cor.rio.gov.br//pub/imagem/_escolas_green.png"
      },
      "geoResult": {
        "point": {
          "lng": -43.2366,
          "lat": -22.9002
        }
      },
      "taxonomies": [
        {
          "type": "Funcionamento",
          "value": "Funcionamento normal"
        }
      ]
    },
    {
      "name": "Casa da Criança Pavuna (Pedreira)",
      "description": {
        "text": "<b></b><br><i>Rua Nossa Senhora do Amparo, S/Nº  </i><br><iframe style=\"background-color:#FFF\"frameborder=0 src=http://webapp.sme.rio.rj.gov.br/jcartela/publico/pesquisa.do?cmd=load&idSetor= width=320 height=240></iframe><br /><br /><iframe frameborder=0 src=http://riomidia.cor.rio.gov.br/pub/frotas_distancia.cfm?latitude=-22.8217&longitude=-43.3604&ponto=109752 width=320 height=300></iframe><br />",
        "information_urls": [
          {
            "url": "http://webapp.sme.rio.rj.gov.br/jcartela/publico/pesquisa.do?cmd=load&idSetor="
          },
          {
            "url": "http://riomidia.cor.rio.gov.br/pub/frotas_distancia.cfm?latitude=-22.8217&longitude=-43.3604&ponto=109752"
          }
        ]
      },
      "ilustration": {
        "icon": "http://riomidia.cor.rio.gov.br//pub/imagem/_escolas_green.png"
      },
      "geoResult": {
        "point": {
          "lng": -43.3604,
          "lat": -22.8217
        }
      },
      "taxonomies": [
        {
          "type": "Funcionamento",
          "value": "Funcionamento normal"
        }
      ]
    },
    {
      "name": "Casa da Criança Professor Almo Saturnino",
      "description": {
        "text": "<b></b><br><i>Av. Aldo Botelho, S/Nº - Benjamin Dumont</i><br><iframe style=\"background-color:#FFF\"frameborder=0 src=http://webapp.sme.rio.rj.gov.br/jcartela/publico/pesquisa.do?cmd=load&idSetor= width=320 height=240></iframe><br /><br /><iframe frameborder=0 src=http://riomidia.cor.rio.gov.br/pub/frotas_distancia.cfm?latitude=-22.9167&longitude=-43.5808&ponto=109753 width=320 height=300></iframe><br />",
        "information_urls": [
          {
            "url": "http://webapp.sme.rio.rj.gov.br/jcartela/publico/pesquisa.do?cmd=load&idSetor="
          },
          {
            "url": "http://riomidia.cor.rio.gov.br/pub/frotas_distancia.cfm?latitude=-22.9167&longitude=-43.5808&ponto=109753"
          }
        ]
      },
      "ilustration": {
        "icon": "http://riomidia.cor.rio.gov.br//pub/imagem/_escolas_green.png"
      },
      "geoResult": {
        "point": {
          "lng": -43.5808,
          "lat": -22.9167
        }
      },
      "taxonomies": [
        {
          "type": "Funcionamento",
          "value": "Funcionamento normal"
        }
      ]
    },
    {
      "name": "Casa da Criança Professor Enyr Portilho Avellar",
      "description": {
        "text": "<b></b><br><i>Rua Votorantim, S/Nº - Mendanha</i><br><iframe style=\"background-color:#FFF\"frameborder=0 src=http://webapp.sme.rio.rj.gov.br/jcartela/publico/pesquisa.do?cmd=load&idSetor= width=320 height=240></iframe><br /><br /><iframe frameborder=0 src=http://riomidia.cor.rio.gov.br/pub/frotas_distancia.cfm?latitude=-22.8591&longitude=-43.5368&ponto=109754 width=320 height=300></iframe><br />",
        "information_urls": [
          {
            "url": "http://webapp.sme.rio.rj.gov.br/jcartela/publico/pesquisa.do?cmd=load&idSetor="
          },
          {
            "url": "http://riomidia.cor.rio.gov.br/pub/frotas_distancia.cfm?latitude=-22.8591&longitude=-43.5368&ponto=109754"
          }
        ]
      },
      "ilustration": {
        "icon": "http://riomidia.cor.rio.gov.br//pub/imagem/_escolas_green.png"
      },
      "geoResult": {
        "point": {
          "lng": -43.5368,
          "lat": -22.8591
        }
      },
      "taxonomies": [
        {
          "type": "Funcionamento",
          "value": "Funcionamento normal"
        }
      ]
    },
    {
      "name": "Casa da Criança Professora Rosa Maria Alves de Oliveira",
      "description": {
        "text": "<b></b><br><i>Av. João XXIII, S/Nº - Lotes 48 À 52 - Conj.João XXIII  </i><br><iframe style=\"background-color:#FFF\"frameborder=0 src=http://webapp.sme.rio.rj.gov.br/jcartela/publico/pesquisa.do?cmd=load&idSetor= width=320 height=240></iframe><br /><br /><iframe frameborder=0 src=http://riomidia.cor.rio.gov.br/pub/frotas_distancia.cfm?latitude=-22.9073&longitude=-43.7022&ponto=109755 width=320 height=300></iframe><br />",
        "information_urls": [
          {
            "url": "http://webapp.sme.rio.rj.gov.br/jcartela/publico/pesquisa.do?cmd=load&idSetor="
          },
          {
            "url": "http://riomidia.cor.rio.gov.br/pub/frotas_distancia.cfm?latitude=-22.9073&longitude=-43.7022&ponto=109755"
          }
        ]
      },
      "ilustration": {
        "icon": "http://riomidia.cor.rio.gov.br//pub/imagem/_escolas_green.png"
      },
      "geoResult": {
        "point": {
          "lng": -43.7022,
          "lat": -22.9073
        }
      },
      "taxonomies": [
        {
          "type": "Funcionamento",
          "value": "Funcionamento normal"
        }
      ]
    },
    {
      "name": "Casa da Criança São Fernando",
      "description": {
        "text": "<b></b><br><i>Rua Álvaro Fausto de Souza, S/Nº  </i><br><iframe style=\"background-color:#FFF\"frameborder=0 src=http://webapp.sme.rio.rj.gov.br/jcartela/publico/pesquisa.do?cmd=load&idSetor= width=320 height=240></iframe><br /><br /><iframe frameborder=0 src=http://riomidia.cor.rio.gov.br/pub/frotas_distancia.cfm?latitude=-22.8893&longitude=-43.7174&ponto=109756 width=320 height=300></iframe><br />",
        "information_urls": [
          {
            "url": "http://webapp.sme.rio.rj.gov.br/jcartela/publico/pesquisa.do?cmd=load&idSetor="
          },
          {
            "url": "http://riomidia.cor.rio.gov.br/pub/frotas_distancia.cfm?latitude=-22.8893&longitude=-43.7174&ponto=109756"
          }
        ]
      },
      "ilustration": {
        "icon": "http://riomidia.cor.rio.gov.br//pub/imagem/_escolas_green.png"
      },
      "geoResult": {
        "point": {
          "lng": -43.7174,
          "lat": -22.8893
        }
      },
      "taxonomies": [
        {
          "type": "Funcionamento",
          "value": "Funcionamento normal"
        }
      ]
    },
    {
      "name": "Casa da Criança Taquaral",
      "description": {
        "text": "<b></b><br><i>Rua M, 74 - Conj. Hab. Taquaral</i><br><iframe style=\"background-color:#FFF\"frameborder=0 src=http://webapp.sme.rio.rj.gov.br/jcartela/publico/pesquisa.do?cmd=load&idSetor= width=320 height=240></iframe><br /><br /><iframe frameborder=0 src=http://riomidia.cor.rio.gov.br/pub/frotas_distancia.cfm?latitude=-22.8686&longitude=-43.4841&ponto=109090 width=320 height=300></iframe><br />",
        "information_urls": [
          {
            "url": "http://webapp.sme.rio.rj.gov.br/jcartela/publico/pesquisa.do?cmd=load&idSetor="
          },
          {
            "url": "http://riomidia.cor.rio.gov.br/pub/frotas_distancia.cfm?latitude=-22.8686&longitude=-43.4841&ponto=109090"
          }
        ]
      },
      "ilustration": {
        "icon": "http://riomidia.cor.rio.gov.br//pub/imagem/_escolas_green.png"
      },
      "geoResult": {
        "point": {
          "lng": -43.4841,
          "lat": -22.8686
        }
      },
      "taxonomies": [
        {
          "type": "Funcionamento",
          "value": "Funcionamento normal"
        }
      ]
    },
    {
      "name": "Casa da Criança Vicente de Carvalho",
      "description": {
        "text": "<b></b><br><i>Rua Soldado Servino Mengarda, S/Nº</i><br><iframe style=\"background-color:#FFF\"frameborder=0 src=http://webapp.sme.rio.rj.gov.br/jcartela/publico/pesquisa.do?cmd=load&idSetor= width=320 height=240></iframe><br /><br /><iframe frameborder=0 src=http://riomidia.cor.rio.gov.br/pub/frotas_distancia.cfm?latitude=-22.8484&longitude=-43.3042&ponto=109884 width=320 height=300></iframe><br />",
        "information_urls": [
          {
            "url": "http://webapp.sme.rio.rj.gov.br/jcartela/publico/pesquisa.do?cmd=load&idSetor="
          },
          {
            "url": "http://riomidia.cor.rio.gov.br/pub/frotas_distancia.cfm?latitude=-22.8484&longitude=-43.3042&ponto=109884"
          }
        ]
      },
      "ilustration": {
        "icon": "http://riomidia.cor.rio.gov.br//pub/imagem/_escolas_green.png"
      },
      "geoResult": {
        "point": {
          "lng": -43.3042,
          "lat": -22.8484
        }
      },
      "taxonomies": [
        {
          "type": "Funcionamento",
          "value": "Funcionamento normal"
        }
      ]
    },
    {
      "name": "Casa da Criança Vila Kennedy",
      "description": {
        "text": "<b></b><br><i>Estr. Sargento Miguel Filho S/Nº  </i><br><iframe style=\"background-color:#FFF\"frameborder=0 src=http://webapp.sme.rio.rj.gov.br/jcartela/publico/pesquisa.do?cmd=load&idSetor= width=320 height=240></iframe><br /><br /><iframe frameborder=0 src=http://riomidia.cor.rio.gov.br/pub/frotas_distancia.cfm?latitude=-22.8578&longitude=-43.4837&ponto=108941 width=320 height=300></iframe><br />",
        "information_urls": [
          {
            "url": "http://webapp.sme.rio.rj.gov.br/jcartela/publico/pesquisa.do?cmd=load&idSetor="
          },
          {
            "url": "http://riomidia.cor.rio.gov.br/pub/frotas_distancia.cfm?latitude=-22.8578&longitude=-43.4837&ponto=108941"
          }
        ]
      },
      "ilustration": {
        "icon": "http://riomidia.cor.rio.gov.br//pub/imagem/_escolas_green.png"
      },
      "geoResult": {
        "point": {
          "lng": -43.4837,
          "lat": -22.8578
        }
      },
      "taxonomies": [
        {
          "type": "Funcionamento",
          "value": "Funcionamento normal"
        }
      ]
    },
    {
      "name": "Centro de Desenvolvimento de Educação Integrada Amalia Fernandez Conde",
      "description": {
        "text": "<b></b><br><i>Rua Almirante Alexandrino, 3.286 </i><br><iframe style=\"background-color:#FFF\"frameborder=0 src=http://webapp.sme.rio.rj.gov.br/jcartela/publico/pesquisa.do?cmd=load&idSetor= width=320 height=240></iframe><br /><br /><iframe frameborder=0 src=http://riomidia.cor.rio.gov.br/pub/frotas_distancia.cfm?latitude=-22.9351&longitude=-43.2015&ponto=109570 width=320 height=300></iframe><br />",
        "information_urls": [
          {
            "url": "http://webapp.sme.rio.rj.gov.br/jcartela/publico/pesquisa.do?cmd=load&idSetor="
          },
          {
            "url": "http://riomidia.cor.rio.gov.br/pub/frotas_distancia.cfm?latitude=-22.9351&longitude=-43.2015&ponto=109570"
          }
        ]
      },
      "ilustration": {
        "icon": "http://riomidia.cor.rio.gov.br//pub/imagem/_escolas_green.png"
      },
      "geoResult": {
        "point": {
          "lng": -43.2015,
          "lat": -22.9351
        }
      },
      "taxonomies": [
        {
          "type": "Funcionamento",
          "value": "Funcionamento normal"
        }
      ]
    },
    {
      "name": "Centro Municipal de Referência de Educação de Jovens e Adultos",
      "description": {
        "text": "<b></b><br><i>Rua da Conceição do Nº 74 A 76 A  </i><br><iframe style=\"background-color:#FFF\"frameborder=0 src=http://webapp.sme.rio.rj.gov.br/jcartela/publico/pesquisa.do?cmd=load&idSetor= width=320 height=240></iframe><br /><br /><iframe frameborder=0 src=http://riomidia.cor.rio.gov.br/pub/frotas_distancia.cfm?latitude=-22.9012&longitude=-43.1837&ponto=108942 width=320 height=300></iframe><br />",
        "information_urls": [
          {
            "url": "http://webapp.sme.rio.rj.gov.br/jcartela/publico/pesquisa.do?cmd=load&idSetor="
          },
          {
            "url": "http://riomidia.cor.rio.gov.br/pub/frotas_distancia.cfm?latitude=-22.9012&longitude=-43.1837&ponto=108942"
          }
        ]
      },
      "ilustration": {
        "icon": "http://riomidia.cor.rio.gov.br//pub/imagem/_escolas_green.png"
      },
      "geoResult": {
        "point": {
          "lng": -43.1837,
          "lat": -22.9012
        }
      },
      "taxonomies": [
        {
          "type": "Funcionamento",
          "value": "Funcionamento normal"
        }
      ]
    },
    {
      "name": "Escola Especial Municipal Ação Cristã Vicente Moretti",
      "description": {
        "text": "<b></b><br><i>Rua Maravilha, 308  </i><br><iframe style=\"background-color:#FFF\"frameborder=0 src=http://webapp.sme.rio.rj.gov.br/jcartela/publico/pesquisa.do?cmd=load&idSetor= width=320 height=240></iframe><br /><br /><iframe frameborder=0 src=http://riomidia.cor.rio.gov.br/pub/frotas_distancia.cfm?latitude=-22.8784&longitude=-43.4577&ponto=109202 width=320 height=300></iframe><br />",
        "information_urls": [
          {
            "url": "http://webapp.sme.rio.rj.gov.br/jcartela/publico/pesquisa.do?cmd=load&idSetor="
          },
          {
            "url": "http://riomidia.cor.rio.gov.br/pub/frotas_distancia.cfm?latitude=-22.8784&longitude=-43.4577&ponto=109202"
          }
        ]
      },
      "ilustration": {
        "icon": "http://riomidia.cor.rio.gov.br//pub/imagem/_escolas_green.png"
      },
      "geoResult": {
        "point": {
          "lng": -43.4577,
          "lat": -22.8784
        }
      },
      "taxonomies": [
        {
          "type": "Funcionamento",
          "value": "Funcionamento normal"
        }
      ]
    },
    {
      "name": "Escola Especial Municipal Doutor Hélio Pellegrino",
      "description": {
        "text": "<b></b><br><i>Rua Felipe Cardoso, 750  </i><br><iframe style=\"background-color:#FFF\"frameborder=0 src=http://webapp.sme.rio.rj.gov.br/jcartela/publico/pesquisa.do?cmd=load&idSetor= width=320 height=240></iframe><br /><br /><iframe frameborder=0 src=http://riomidia.cor.rio.gov.br/pub/frotas_distancia.cfm?latitude=-22.9218&longitude=-43.6802&ponto=109196 width=320 height=300></iframe><br />",
        "information_urls": [
          {
            "url": "http://webapp.sme.rio.rj.gov.br/jcartela/publico/pesquisa.do?cmd=load&idSetor="
          },
          {
            "url": "http://riomidia.cor.rio.gov.br/pub/frotas_distancia.cfm?latitude=-22.9218&longitude=-43.6802&ponto=109196"
          }
        ]
      },
      "ilustration": {
        "icon": "http://riomidia.cor.rio.gov.br//pub/imagem/_escolas_green.png"
      },
      "geoResult": {
        "point": {
          "lng": -43.6802,
          "lat": -22.9218
        }
      },
      "taxonomies": [
        {
          "type": "Funcionamento",
          "value": "Funcionamento normal"
        }
      ]
    },
    {
      "name": "Escola Especial Municipal Doutor Ulisses Pernambucano",
      "description": {
        "text": "<b></b><br><i>Rua Dois de Fevereiro, S/Nº  </i><br><iframe style=\"background-color:#FFF\"frameborder=0 src=http://webapp.sme.rio.rj.gov.br/jcartela/publico/pesquisa.do?cmd=load&idSetor= width=320 height=240></iframe><br /><br /><iframe frameborder=0 src=http://riomidia.cor.rio.gov.br/pub/frotas_distancia.cfm?latitude=-22.9021&longitude=-43.3026&ponto=109544 width=320 height=300></iframe><br />",
        "information_urls": [
          {
            "url": "http://webapp.sme.rio.rj.gov.br/jcartela/publico/pesquisa.do?cmd=load&idSetor="
          },
          {
            "url": "http://riomidia.cor.rio.gov.br/pub/frotas_distancia.cfm?latitude=-22.9021&longitude=-43.3026&ponto=109544"
          }
        ]
      },
      "ilustration": {
        "icon": "http://riomidia.cor.rio.gov.br//pub/imagem/_escolas_green.png"
      },
      "geoResult": {
        "point": {
          "lng": -43.3026,
          "lat": -22.9021
        }
      },
      "taxonomies": [
        {
          "type": "Funcionamento",
          "value": "Funcionamento normal"
        }
      ]
    },
    {
      "name": "Escola Especial Municipal Francisco de Castro",
      "description": {
        "text": "<b></b><br><i>Av. Paula e Souza, S/Nº  </i><br><iframe style=\"background-color:#FFF\"frameborder=0 src=http://webapp.sme.rio.rj.gov.br/jcartela/publico/pesquisa.do?cmd=load&idSetor= width=320 height=240></iframe><br /><br /><iframe frameborder=0 src=http://riomidia.cor.rio.gov.br/pub/frotas_distancia.cfm?latitude=-22.913&longitude=-43.2259&ponto=109197 width=320 height=300></iframe><br />",
        "information_urls": [
          {
            "url": "http://webapp.sme.rio.rj.gov.br/jcartela/publico/pesquisa.do?cmd=load&idSetor="
          },
          {
            "url": "http://riomidia.cor.rio.gov.br/pub/frotas_distancia.cfm?latitude=-22.913&longitude=-43.2259&ponto=109197"
          }
        ]
      },
      "ilustration": {
        "icon": "http://riomidia.cor.rio.gov.br//pub/imagem/_escolas_green.png"
      },
      "geoResult": {
        "point": {
          "lng": -43.2259,
          "lat": -22.913
        }
      },
      "taxonomies": [
        {
          "type": "Funcionamento",
          "value": "Funcionamento normal"
        }
      ]
    },
    {
      "name": "Escola Especial Municipal Marechal Mascarenhas de Moraes",
      "description": {
        "text": "<b></b><br><i>Av. Duque de Caxias, 26  </i><br><iframe style=\"background-color:#FFF\"frameborder=0 src=http://webapp.sme.rio.rj.gov.br/jcartela/publico/pesquisa.do?cmd=load&idSetor= width=320 height=240></iframe><br /><br /><iframe frameborder=0 src=http://riomidia.cor.rio.gov.br/pub/frotas_distancia.cfm?latitude=-22.8552&longitude=-43.3858&ponto=109198 width=320 height=300></iframe><br />",
        "information_urls": [
          {
            "url": "http://webapp.sme.rio.rj.gov.br/jcartela/publico/pesquisa.do?cmd=load&idSetor="
          },
          {
            "url": "http://riomidia.cor.rio.gov.br/pub/frotas_distancia.cfm?latitude=-22.8552&longitude=-43.3858&ponto=109198"
          }
        ]
      },
      "ilustration": {
        "icon": "http://riomidia.cor.rio.gov.br//pub/imagem/_escolas_green.png"
      },
      "geoResult": {
        "point": {
          "lng": -43.3858,
          "lat": -22.8552
        }
      },
      "taxonomies": [
        {
          "type": "Funcionamento",
          "value": "Funcionamento normal"
        }
      ]
    },
    {
      "name": "Escola Especial Municipal Maria Montessori",
      "description": {
        "text": "<b></b><br><i>Rua Ivo do Prado, 361</i><br><iframe style=\"background-color:#FFF\"frameborder=0 src=http://webapp.sme.rio.rj.gov.br/jcartela/publico/pesquisa.do?cmd=load&idSetor= width=320 height=240></iframe><br /><br /><iframe frameborder=0 src=http://riomidia.cor.rio.gov.br/pub/frotas_distancia.cfm?latitude=-22.8997&longitude=-43.5656&ponto=109199 width=320 height=300></iframe><br />",
        "information_urls": [
          {
            "url": "http://webapp.sme.rio.rj.gov.br/jcartela/publico/pesquisa.do?cmd=load&idSetor="
          },
          {
            "url": "http://riomidia.cor.rio.gov.br/pub/frotas_distancia.cfm?latitude=-22.8997&longitude=-43.5656&ponto=109199"
          }
        ]
      },
      "ilustration": {
        "icon": "http://riomidia.cor.rio.gov.br//pub/imagem/_escolas_green.png"
      },
      "geoResult": {
        "point": {
          "lng": -43.5656,
          "lat": -22.8997
        }
      },
      "taxonomies": [
        {
          "type": "Funcionamento",
          "value": "Funcionamento normal"
        }
      ]
    },
    {
      "name": "Escola Especial Municipal Marly Fróes Peixoto",
      "description": {
        "text": "<b></b><br><i>Rua Jardim Botânico, 660 - Abbr </i><br><iframe style=\"background-color:#FFF\"frameborder=0 src=http://webapp.sme.rio.rj.gov.br/jcartela/publico/pesquisa.do?cmd=load&idSetor= width=320 height=240></iframe><br /><br /><iframe frameborder=0 src=http://riomidia.cor.rio.gov.br/pub/frotas_distancia.cfm?latitude=-22.9639&longitude=-43.2186&ponto=109315 width=320 height=300></iframe><br />",
        "information_urls": [
          {
            "url": "http://webapp.sme.rio.rj.gov.br/jcartela/publico/pesquisa.do?cmd=load&idSetor="
          },
          {
            "url": "http://riomidia.cor.rio.gov.br/pub/frotas_distancia.cfm?latitude=-22.9639&longitude=-43.2186&ponto=109315"
          }
        ]
      },
      "ilustration": {
        "icon": "http://riomidia.cor.rio.gov.br//pub/imagem/_escolas_green.png"
      },
      "geoResult": {
        "point": {
          "lng": -43.2186,
          "lat": -22.9639
        }
      },
      "taxonomies": [
        {
          "type": "Funcionamento",
          "value": "Funcionamento normal"
        }
      ]
    },
    {
      "name": "Escola Especial Municipal Maurício de Medeiros",
      "description": {
        "text": "<b></b><br><i>Rua Emílio de Meneses, 230 Fundos  </i><br><iframe style=\"background-color:#FFF\"frameborder=0 src=http://webapp.sme.rio.rj.gov.br/jcartela/publico/pesquisa.do?cmd=load&idSetor= width=320 height=240></iframe><br /><br /><iframe frameborder=0 src=http://riomidia.cor.rio.gov.br/pub/frotas_distancia.cfm?latitude=-22.8864&longitude=-43.3128&ponto=109200 width=320 height=300></iframe><br />",
        "information_urls": [
          {
            "url": "http://webapp.sme.rio.rj.gov.br/jcartela/publico/pesquisa.do?cmd=load&idSetor="
          },
          {
            "url": "http://riomidia.cor.rio.gov.br/pub/frotas_distancia.cfm?latitude=-22.8864&longitude=-43.3128&ponto=109200"
          }
        ]
      },
      "ilustration": {
        "icon": "http://riomidia.cor.rio.gov.br//pub/imagem/_escolas_green.png"
      },
      "geoResult": {
        "point": {
          "lng": -43.3128,
          "lat": -22.8864
        }
      },
      "taxonomies": [
        {
          "type": "Funcionamento",
          "value": "Funcionamento normal"
        }
      ]
    },
    {
      "name": "Escola Especial Municipal Professora Maria Therezinha de Carvalho Machado",
      "description": {
        "text": "<b></b><br><i>Rua Comandante Rubens Silva, 949  </i><br><iframe style=\"background-color:#FFF\"frameborder=0 src=http://webapp.sme.rio.rj.gov.br/jcartela/publico/pesquisa.do?cmd=load&idSetor= width=320 height=240></iframe><br /><br /><iframe frameborder=0 src=http://riomidia.cor.rio.gov.br/pub/frotas_distancia.cfm?latitude=-22.9437&longitude=-43.3354&ponto=109201 width=320 height=300></iframe><br />",
        "information_urls": [
          {
            "url": "http://webapp.sme.rio.rj.gov.br/jcartela/publico/pesquisa.do?cmd=load&idSetor="
          },
          {
            "url": "http://riomidia.cor.rio.gov.br/pub/frotas_distancia.cfm?latitude=-22.9437&longitude=-43.3354&ponto=109201"
          }
        ]
      },
      "ilustration": {
        "icon": "http://riomidia.cor.rio.gov.br//pub/imagem/_escolas_green.png"
      },
      "geoResult": {
        "point": {
          "lng": -43.3354,
          "lat": -22.9437
        }
      },
      "taxonomies": [
        {
          "type": "Funcionamento",
          "value": "Funcionamento normal"
        }
      ]
    },